stop_id,stop_code,stop_name,tts_stop_name,stop_desc,stop_lat,stop_lon,zone_id,stop_url,location_type,parent_station,stop_timezone,wheelchair_boarding,level_id,platform_code
864,0901,Barack Obama Blvd & W San Carlos,,,37.325176,-121.900528,,https://scmtd.com/en/stop/0901,,,,0,,
865,0902,Barack Obama Blvd & W San Carlos,,,37.324220,-121.900340,,https://scmtd.com/en/stop/0902,,,,0,,
866,0904,Diridon Station (Caltrain Depot),,,37.330288,-121.902687,,https://scmtd.com/en/stop/0904,,,,0,,
867,0906,W Santa Clara & Delmas Ave,,,37.331970,-121.899422,,https://scmtd.com/en/stop/0906,,,,0,,
868,0908,W Santa Clara & Almaden Blvd,,,37.333900,-121.895195,,https://scmtd.com/en/stop/0908,,,,0,,
869,0910,E Santa Clara & S 1st,,,37.336327,-121.890053,,https://scmtd.com/en/stop/0910,,,,0,,
870,0912,W Santa Clara & S Market,,,37.335377,-121.892365,,https://scmtd.com/en/stop/0912,,,,0,,
871,0913,W Santa Clara & Delmas Ave,,,37.332180,-121.899590,,https://scmtd.com/en/stop/0913,,,,0,,
872,0914,E San Fernando & S 7th,,,37.337235,-121.883217,,https://scmtd.com/en/stop/0914,,,,0,,
873,0915,Barack Obama Blvd & Park Ave,,,37.325944,-121.900918,,https://scmtd.com/en/stop/0915,,,,0,,
874,0918,Big Basin Way & China Grade Rd,,,37.165234,-122.163177,,https://scmtd.com/en/stop/0918,,,,0,,
875,0920,W Santa Clara & Almaden Blvd,,,37.333790,-121.895737,,https://scmtd.com/en/stop/0920,,,,0,,
876,0923,Barack Obama Blvd & Park Ave,,,37.327206,-121.900444,,https://scmtd.com/en/stop/0923,,,,0,,
877,0924,E Santa Clara & S 6th,,,37.338436,-121.885567,,https://scmtd.com/en/stop/0924,,,,0,,
878,0925,E Santa Clara & N 5th,,,37.338409,-121.886139,,https://scmtd.com/en/stop/0925,,,,0,,
879,1001,Airport Blvd & Airport Rd,,,36.934383,-121.782814,,https://scmtd.com/en/stop/1001,,,,0,,
880,1002,Airport Blvd (Airport),,,36.934322,-121.783485,,https://scmtd.com/en/stop/1002,,,,0,,
881,1005,Airport Blvd & Holm Rd,,,36.931953,-121.787842,,https://scmtd.com/en/stop/1005,,,,0,,
882,1006,Airport Blvd (Freedom Centre),,,36.939846,-121.776550,,https://scmtd.com/en/stop/1006,,,,0,,
883,1015,Amesti Rd & Green Valley Rd (Amesti School),,,36.946316,-121.767708,,https://scmtd.com/en/stop/1015,,,,0,,
884,1020,Amesti Rd & Mann Ave,,,36.956173,-121.781731,,https://scmtd.com/en/stop/1020,,,,0,,
885,1026,Amesti Rd & Bollinger Pl,,,36.967934,-121.793793,,https://scmtd.com/en/stop/1026,,,,0,,
886,1034,Bowker Rd & Buena Vista Dr,,,36.939789,-121.791351,,https://scmtd.com/en/stop/1034,,,,0,,
887,1035,Bowker Rd & Calabasas Rd,,,36.941872,-121.790672,,https://scmtd.com/en/stop/1035,,,,0,,
889,1044,Browns Valley Rd & Corralitos Rd,,,36.988743,-121.806686,,https://scmtd.com/en/stop/1044,,,,0,,
890,1045,Clifford Ave (Clifford Manor),,,36.924629,-121.773865,,https://scmtd.com/en/stop/1045,,,,0,,
891,1046,Clifford Ave & Lassen Way,,,36.924191,-121.773895,,https://scmtd.com/en/stop/1046,,,,0,,
892,1047,Clifford Ave & Melrose Ave,,,36.926682,-121.772972,,https://scmtd.com/en/stop/1047,,,,0,,
893,1049,Clifford Ave & Crescent Dr,,,36.927647,-121.771500,,https://scmtd.com/en/stop/1049,,,,0,,
894,1051,Clifford Ave & Freedom Blvd,,,36.929779,-121.768669,,https://scmtd.com/en/stop/1051,,,,0,,
895,1052,College Rd & Parker Dr,,,36.933037,-121.734009,,https://scmtd.com/en/stop/1052,,,,0,,
896,1053,College Rd & Cutter Dr,,,36.934174,-121.738052,,https://scmtd.com/en/stop/1053,,,,0,,
897,1054,College Rd & E Lake Ave,,,36.935867,-121.742928,,https://scmtd.com/en/stop/1054,,,,0,,
898,1056,Corralitos Rd (Bradley Elementary),,,36.975407,-121.806442,,https://scmtd.com/en/stop/1056,,,,0,,
899,1057,Corralitos Rd & Varni Rd,,,36.968041,-121.807327,,https://scmtd.com/en/stop/1057,,,,0,,
900,1059,E Beach & Marchant,,,36.912575,-121.753555,,https://scmtd.com/en/stop/1059,,,,0,,
901,1060,E Beach & Blackburn,,,36.915508,-121.749451,,https://scmtd.com/en/stop/1060,,,,0,,
902,1061,E Beach & Beck,,,36.916798,-121.747749,,https://scmtd.com/en/stop/1061,,,,0,,
903,1062,E Beach & Hushbeck Ave,,,36.918560,-121.745316,,https://scmtd.com/en/stop/1062,,,,0,,
904,1064,E Lake & Sudden,,,36.913342,-121.756165,,https://scmtd.com/en/stop/1064,,,,0,,
905,1069,E Lake & Martinelli (East Lake Village),,,36.924847,-121.746262,,https://scmtd.com/en/stop/1069,,,,0,,
906,1070,E Lake & Martinelli (East Lake Village),,,36.925247,-121.745865,,https://scmtd.com/en/stop/1070,,,,0,,
909,1080,Freedom Blvd & Atkinson Ln,,,36.929951,-121.767693,,https://scmtd.com/en/stop/1080,,,,0,,
910,1081,Freedom Blvd & Sydney Ave,,,36.931419,-121.769493,,https://scmtd.com/en/stop/1081,,,,0,,
911,1082,Freedom Blvd & Blanca Ln,,,36.931553,-121.769249,,https://scmtd.com/en/stop/1082,,,,0,,
912,1083,Freedom Blvd & Davis Ave,,,36.933136,-121.771362,,https://scmtd.com/en/stop/1083,,,,0,,
913,1084,Freedom Blvd & Green Valley Rd,,,36.935398,-121.773621,,https://scmtd.com/en/stop/1084,,,,0,,
914,1086,Freedom Blvd & Airport Blvd (Freedom Centre),,,36.937725,-121.776543,,https://scmtd.com/en/stop/1086,,,,0,,
915,1087,Freedom Blvd & Emme,,,36.939388,-121.780052,,https://scmtd.com/en/stop/1087,,,,0,,
916,1088,Freedom Blvd & Compton Ter,,,36.939522,-121.779884,,https://scmtd.com/en/stop/1088,,,,0,,
917,1089,Freedom Blvd & Bowker Rd,,,36.944496,-121.787468,,https://scmtd.com/en/stop/1089,,,,0,,
918,1090,Freedom Blvd & Bowker Rd,,,36.944565,-121.787308,,https://scmtd.com/en/stop/1090,,,,0,,
919,1091,S Green Valley Rd & Melwood,,,36.919697,-121.783035,,https://scmtd.com/en/stop/1091,,,,0,,
920,1092,S Green Valley Rd & Melwood,,,36.920185,-121.783089,,https://scmtd.com/en/stop/1092,,,,0,,
921,1093,S Green Valley Rd & Oakridge,,,36.923981,-121.780571,,https://scmtd.com/en/stop/1093,,,,0,,
922,1094,S Green Valley Rd & Hope Dr (Kingdom Hall),,,36.928142,-121.778175,,https://scmtd.com/en/stop/1094,,,,0,,
923,1095,S Green Valley Rd & Pennsylvania Dr,,,36.930405,-121.776855,,https://scmtd.com/en/stop/1095,,,,0,,
924,1097,Green Valley Rd & Freedom Blvd,,,36.935593,-121.772751,,https://scmtd.com/en/stop/1097,,,,0,,
925,1098,Green Valley Rd & Holohan Rd (The Towers),,,36.939835,-121.770195,,https://scmtd.com/en/stop/1098,,,,0,,
926,1099,Green Valley Rd & Holohan Rd (The Towers),,,36.939571,-121.770050,,https://scmtd.com/en/stop/1099,,,,0,,
927,1100,Green Valley Rd & Carnation Dr (Medical Plaza),,,36.937897,-121.770973,,https://scmtd.com/en/stop/1100,,,,0,,
928,1101,Green Valley Rd & Amesti Rd,,,36.946037,-121.766762,,https://scmtd.com/en/stop/1101,,,,0,,
929,1102,Green Valley Rd & Amesti Rd,,,36.945976,-121.766525,,https://scmtd.com/en/stop/1102,,,,0,,
930,1103,Green Valley Rd & Behler Rd (Pinto Lake Pk),,,36.948223,-121.765282,,https://scmtd.com/en/stop/1103,,,,0,,
931,1105,Green Valley Rd & Mello View Ln,,,36.950825,-121.764969,,https://scmtd.com/en/stop/1105,,,,0,,
932,1106,Green Valley Rd & Minto Rd,,,36.951668,-121.764816,,https://scmtd.com/en/stop/1106,,,,0,,
933,1109,Green Valley Rd & Trembly Ln,,,36.958069,-121.764832,,https://scmtd.com/en/stop/1109,,,,0,,
934,1110,Green Valley Rd & Klassen Ln,,,36.961384,-121.765038,,https://scmtd.com/en/stop/1110,,,,0,,
935,1111,Green Valley Rd & Klassen Ln,,,36.961143,-121.764877,,https://scmtd.com/en/stop/1111,,,,0,,
936,1112,Green Valley Rd & Dalton Ln,,,36.963707,-121.764847,,https://scmtd.com/en/stop/1112,,,,0,,
937,1113,Green Valley Rd & Rancho Todos Santos Rd,,,36.963921,-121.765060,,https://scmtd.com/en/stop/1113,,,,0,,
939,1118,Herman Ave (Rolling Hills Middle School),,,36.924446,-121.784691,,https://scmtd.com/en/stop/1118,,,,0,,
940,1127,Lakeview Rd & Parkwood Dr,,,36.931274,-121.732437,,https://scmtd.com/en/stop/1127,,,,0,,
941,1130,Kralj Dr & Lawrence Ave,,,36.922463,-121.783279,,https://scmtd.com/en/stop/1130,,,,0,,
942,1136,Main & Rodriguez,,,36.915100,-121.763763,,https://scmtd.com/en/stop/1136,,,,0,,
943,1137,Main & Auto Center Dr,,,36.915791,-121.767921,,https://scmtd.com/en/stop/1137,,,,0,,
944,1139,Main & Pennsylvania Dr,,,36.916340,-121.771217,,https://scmtd.com/en/stop/1139,,,,0,,
945,1141,Main & Clifford Ave,,,36.917484,-121.776237,,https://scmtd.com/en/stop/1141,,,,0,,
946,1142,Main & Ohlone Pkwy,,,36.917240,-121.776535,,https://scmtd.com/en/stop/1142,,,,0,,
947,1143,Main & S Green Valley Rd,,,36.918545,-121.782410,,https://scmtd.com/en/stop/1143,,,,0,,
948,1144,Main & S Green Valley Rd,,,36.918312,-121.782959,,https://scmtd.com/en/stop/1144,,,,0,,
952,1151,Manfre Rd & Larkin Valley Rd,,,36.927284,-121.800095,,https://scmtd.com/en/stop/1151,,,,0,,
953,1152,Manfre Rd & Lucerne Ave,,,36.933093,-121.799002,,https://scmtd.com/en/stop/1152,,,,0,,
954,1153,Manfre Rd (#222),,,36.935535,-121.798355,,https://scmtd.com/en/stop/1153,,,,0,,
955,1154,Manfre Rd & Buena Vista Dr,,,36.939365,-121.797920,,https://scmtd.com/en/stop/1154,,,,0,,
956,1177,Rodriguez & W 5th,,,36.911923,-121.762352,,https://scmtd.com/en/stop/1177,,,,0,,
957,1179,Rodriguez & Ford,,,36.913075,-121.764084,,https://scmtd.com/en/stop/1179,,,,0,,
958,1181,Airport Blvd & Ross Ave,,,36.933208,-121.785049,,https://scmtd.com/en/stop/1181,,,,0,,
959,1182,Shady Oaks Dr & Anna,,,36.925869,-121.785393,,https://scmtd.com/en/stop/1182,,,,0,,
960,1183,Shady Oaks Dr & Jeanette Way,,,36.927445,-121.785370,,https://scmtd.com/en/stop/1183,,,,0,,
961,1185,Sunnyhills Dr & Shady Oaks Dr,,,36.929913,-121.785370,,https://scmtd.com/en/stop/1185,,,,0,,
964,1209,Aptos Beach Dr & Marina Ave,,,36.969791,-121.904762,,https://scmtd.com/en/stop/1209,,,,0,,
965,1216,Bay Ave & Capitola Ave,,,36.979069,-121.953629,,https://scmtd.com/en/stop/1216,,,,0,,
966,1217,Bay Ave & Hill,,,36.980904,-121.955490,,https://scmtd.com/en/stop/1217,,,,0,,
967,1219,Bay & Columbia (Garfield Park Village),,,36.962440,-122.034157,,https://scmtd.com/en/stop/1219,,,,0,,
968,1220,Bay & Columbia (Garfield Park Village),,,36.962483,-122.033958,,https://scmtd.com/en/stop/1220,,,,0,,
969,1222,Bay & Redwood,,,36.963928,-122.036430,,https://scmtd.com/en/stop/1222,,,,0,,
970,1223,Bay & Seaside,,,36.965504,-122.038498,,https://scmtd.com/en/stop/1223,,,,0,,
971,1224,Bay & Seaside,,,36.965355,-122.038414,,https://scmtd.com/en/stop/1224,,,,0,,
972,1225,Bay & Mission (Bay View School),,,36.966209,-122.039810,,https://scmtd.com/en/stop/1225,,,,0,,
973,1226,Bay & Mission,,,36.966919,-122.040596,,https://scmtd.com/en/stop/1226,,,,0,,
974,1227,Bay & King,,,36.968300,-122.043297,,https://scmtd.com/en/stop/1227,,,,0,,
975,1228,Bay & Escalona Dr,,,36.969410,-122.045906,,https://scmtd.com/en/stop/1228,,,,0,,
976,1230,Bay Dr & Iowa Dr,,,36.974297,-122.050400,,https://scmtd.com/en/stop/1230,,,,0,,
977,1231,Bay Dr & Nobel Dr,,,36.973709,-122.050110,,https://scmtd.com/en/stop/1231,,,,0,,
978,1232,Bay Dr & Meder,,,36.975456,-122.052437,,https://scmtd.com/en/stop/1232,,,,0,,
979,1236,Big Basin Way & Hwy 9,,,37.125347,-122.122658,,https://scmtd.com/en/stop/1236,,,,0,,
980,1237,Big Basin Way & Boulder Brook Dr,,,37.130600,-122.134613,,https://scmtd.com/en/stop/1237,,,,0,,
981,1238,Big Basin Way & Redwood Ave,,,37.124828,-122.126190,,https://scmtd.com/en/stop/1238,,,,0,,
982,1239,Big Basin Way & Ridge Dr (Forest Pool),,,37.135456,-122.140900,,https://scmtd.com/en/stop/1239,,,,0,,
983,1240,Big Basin Way (Brackenbrae Br),,,37.138317,-122.143929,,https://scmtd.com/en/stop/1240,,,,0,,
984,1241,Big Basin Way & Acorn Dr,,,37.139378,-122.148872,,https://scmtd.com/en/stop/1241,,,,0,,
985,1242,Big Basin Way & Acorn Dr,,,37.138859,-122.148087,,https://scmtd.com/en/stop/1242,,,,0,,
986,1243,Big Basin Way & Fallen Leaf Dr,,,37.144855,-122.156685,,https://scmtd.com/en/stop/1243,,,,0,,
987,1244,Big Basin Way & Fallen Leaf Dr,,,37.144703,-122.156837,,https://scmtd.com/en/stop/1244,,,,0,,
988,1246,Big Basin Way & Jamison Creek Rd,,,37.146034,-122.157898,,https://scmtd.com/en/stop/1246,,,,0,,
989,1247,Big Basin Way (Country Club),,,37.153385,-122.161385,,https://scmtd.com/en/stop/1247,,,,0,,
990,1250,Bonny Doon Rd & Phillips Ranch Rd (Mc Henry Vnyd),,,37.065868,-122.151726,,https://scmtd.com/en/stop/1250,,,,0,,
991,1251,Bonny Doon Rd (Country Estates Terrace),,,37.052712,-122.160866,,https://scmtd.com/en/stop/1251,,,,0,,
992,1254,Broadway & Riverside Ave,,,36.971329,-122.022049,,https://scmtd.com/en/stop/1254,,,,0,,
993,1255,Broadway & Clay,,,36.972656,-122.019501,,https://scmtd.com/en/stop/1255,,,,0,,
994,1256,Broadway & Clay,,,36.972805,-122.019524,,https://scmtd.com/en/stop/1256,,,,0,,
995,1257,Broadway & Ocean,,,36.973503,-122.017769,,https://scmtd.com/en/stop/1257,,,,0,,
996,1258,Broadway & Pine,,,36.974903,-122.012794,,https://scmtd.com/en/stop/1258,,,,0,,
997,1259,Broadway & Cayuga,,,36.975063,-122.010559,,https://scmtd.com/en/stop/1259,,,,0,,
998,1260,Broadway & Seabright Ave,,,36.975346,-122.008850,,https://scmtd.com/en/stop/1260,,,,0,,
999,1262,Brommer (Sorrento Oaks),,,36.971954,-121.993874,,https://scmtd.com/en/stop/1262,,,,0,,
1000,1263,Brommer & Captains Ct,,,36.972103,-121.993774,,https://scmtd.com/en/stop/1263,,,,0,,
1001,1265,Brommer & El Dorado Ave,,,36.971947,-121.989578,,https://scmtd.com/en/stop/1265,,,,0,,
1002,1266,Brommer & El Dorado Ave,,,36.972061,-121.989075,,https://scmtd.com/en/stop/1266,,,,0,,
1003,1267,Brommer & 17th Ave,,,36.971119,-121.985313,,https://scmtd.com/en/stop/1267,,,,0,,
1004,1269,Brommer & 17th Ave,,,36.971306,-121.985390,,https://scmtd.com/en/stop/1269,,,,0,,
1007,1288,Capitola Rd & 7th Ave,,,36.979492,-121.992188,,https://scmtd.com/en/stop/1288,,,,0,,
1008,1289,Capitola Rd & 7th Ave,,,36.979050,-121.991577,,https://scmtd.com/en/stop/1289,,,,0,,
1009,1290,Capitola Rd & El Dorado Ave,,,36.977577,-121.988701,,https://scmtd.com/en/stop/1290,,,,0,,
1010,1291,Capitola Rd & Jose Ave,,,36.977852,-121.988724,,https://scmtd.com/en/stop/1291,,,,0,,
1011,1293,Capitola Rd & 17th Ave,,,36.975636,-121.982391,,https://scmtd.com/en/stop/1293,,,,0,,
1012,1294,Capitola Rd & 17th Ave (Live Oak Senior Ctr),,,36.975834,-121.981972,,https://scmtd.com/en/stop/1294,,,,0,,
1013,1297,Capitola Rd & Woodrose Ave,,,36.975285,-121.978172,,https://scmtd.com/en/stop/1297,,,,0,,
1014,1298,Capitola Rd & Maciel Ave,,,36.975441,-121.976852,,https://scmtd.com/en/stop/1298,,,,0,,
1015,1299,Capitola Rd & 30th Ave,,,36.973675,-121.974098,,https://scmtd.com/en/stop/1299,,,,0,,
1016,1300,Capitola Rd & 30th Ave,,,36.973789,-121.972603,,https://scmtd.com/en/stop/1300,,,,0,,
1017,1301,Capitola Rd & Thompson Ave,,,36.973602,-121.970589,,https://scmtd.com/en/stop/1301,,,,0,,
1018,1302,Capitola Rd & 41st Ave,,,36.973602,-121.966553,,https://scmtd.com/en/stop/1302,,,,0,,
1019,1303,Capitola Rd & 41st Ave,,,36.973621,-121.964485,,https://scmtd.com/en/stop/1303,,,,0,,
1020,1304,Capitola Rd & 41st Ave,,,36.973843,-121.963669,,https://scmtd.com/en/stop/1304,,,,0,,
1021,1305,Capitola Rd & 44th Ave,,,36.973618,-121.960815,,https://scmtd.com/en/stop/1305,,,,0,,
1022,1306,Capitola Rd & 43rd Ave,,,36.973843,-121.961472,,https://scmtd.com/en/stop/1306,,,,0,,
1023,1307,Capitola Rd & 47th Ave,,,36.973656,-121.958023,,https://scmtd.com/en/stop/1307,,,,0,,
1024,1312,Center Ave & East,,,36.974327,-121.910355,,https://scmtd.com/en/stop/1312,,,,0,,
1025,1314,Center Ave & Santa Clara Ave,,,36.974441,-121.908646,,https://scmtd.com/en/stop/1314,,,,0,,
1026,1315,Center Ave & El Camino Del Mar,,,36.974503,-121.907295,,https://scmtd.com/en/stop/1315,,,,0,,
1029,1325,Clubhouse Dr & St Andrews Dr,,,36.964104,-121.879417,,https://scmtd.com/en/stop/1325,,,,0,,
1030,1328,Clubhouse Dr & Locke Dr,,,36.967808,-121.883453,,https://scmtd.com/en/stop/1328,,,,0,,
1031,1331,Clubhouse Dr & Los Altos Dr,,,36.970222,-121.885704,,https://scmtd.com/en/stop/1331,,,,0,,
1032,1332,Clubhouse Dr & Murray Ave,,,36.972874,-121.887932,,https://scmtd.com/en/stop/1332,,,,0,,
1033,1341,Bay & High (UCSC - Main Gate),,,36.977570,-122.053558,,https://scmtd.com/en/stop/1341,,,,0,,
1034,1342,Coolidge Dr & Hagar Ct  (UCSC - Lower Campus),,,36.981369,-122.051926,,https://scmtd.com/en/stop/1342,,,,0,,
1035,1344,Coral (Granite Rock),,,36.984577,-122.032249,,https://scmtd.com/en/stop/1344,,,,0,,
1038,1349,Delaware Ave & Shaffer (De Anza),,,36.954601,-122.062317,,https://scmtd.com/en/stop/1349,,,,0,,
1039,1350,Delaware Ave & Natural Bridges Dr,,,36.954792,-122.057671,,https://scmtd.com/en/stop/1350,,,,0,,
1040,1351,Delaware Ave & Swift,,,36.955643,-122.048012,,https://scmtd.com/en/stop/1351,,,,0,,
1041,1352,Delaware Ave & Almar Ave,,,36.956249,-122.043053,,https://scmtd.com/en/stop/1352,,,,0,,
1042,1353,Delaware Ave & Surfside,,,36.956711,-122.040794,,https://scmtd.com/en/stop/1353,,,,0,,
1043,1355,Delaware Ave & Woodrow Ave,,,36.956913,-122.037956,,https://scmtd.com/en/stop/1355,,,,0,,
1044,1356,Delaware Ave & Woodrow Ave,,,36.957111,-122.037643,,https://scmtd.com/en/stop/1356,,,,0,,
1045,1360,E Cliff Dr & 13th Ave,,,36.964195,-121.992393,,https://scmtd.com/en/stop/1360,,,,0,,
1046,1363,E Cliff Dr (East Cliff Village),,,36.963562,-121.990685,,https://scmtd.com/en/stop/1363,,,,0,,
1047,1364,E Cliff Dr & 15th Ave,,,36.963505,-121.991188,,https://scmtd.com/en/stop/1364,,,,0,,
1048,1372,Eaton & 5th Ave,,,36.967808,-121.999176,,https://scmtd.com/en/stop/1372,,,,0,,
1049,1379,Emeline Ave & Grant,,,36.985378,-122.018837,,https://scmtd.com/en/stop/1379,,,,0,,
1050,1380,Emeline Ave & Avalon,,,36.985912,-122.018623,,https://scmtd.com/en/stop/1380,,,,0,,
1051,1381,Emeline Ave & Button,,,36.986755,-122.018532,,https://scmtd.com/en/stop/1381,,,,0,,
1052,1382,Emeline Ave & Belmont,,,36.988178,-122.018280,,https://scmtd.com/en/stop/1382,,,,0,,
1053,1383,Emeline Ave & Fernside,,,36.988522,-122.018066,,https://scmtd.com/en/stop/1383,,,,0,,
1054,1384,Emeline Ave & Sutphen,,,36.991451,-122.017708,,https://scmtd.com/en/stop/1384,,,,0,,
1055,1385,Empire Grade (UCSC - Arboretum),,,36.982777,-122.062706,,https://scmtd.com/en/stop/1385,,,,0,,
1056,1386,Empire Grade & Heller Dr,,,36.988293,-122.068787,,https://scmtd.com/en/stop/1386,,,,0,,
1057,1387,Empire Grade (Waldorf School),,,37.005913,-122.073990,,https://scmtd.com/en/stop/1387,,,,0,,
1058,1388,Empire Grade & Smith Grade Rd,,,37.026981,-122.099411,,https://scmtd.com/en/stop/1388,,,,0,,
1059,1389,Empire Grade & Pineridge Rd,,,37.045361,-122.109467,,https://scmtd.com/en/stop/1389,,,,0,,
1060,1390,Empire Grade & Pineridge Rd,,,37.045700,-122.109734,,https://scmtd.com/en/stop/1390,,,,0,,
1061,1391,Empire Grade & McGivern Way,,,37.053997,-122.117096,,https://scmtd.com/en/stop/1391,,,,0,,
1062,1392,Empire Grade & Felton Empire Rd,,,37.057629,-122.122879,,https://scmtd.com/en/stop/1392,,,,0,,
1063,1393,Empire Grade & Felton Empire Rd,,,37.057446,-122.122986,,https://scmtd.com/en/stop/1393,,,,0,,
1064,1395,Empire Grade & Wild Iris Ln,,,37.064621,-122.123215,,https://scmtd.com/en/stop/1395,,,,0,,
1065,1396,Empire Grade & Feather Ln,,,37.066418,-122.122498,,https://scmtd.com/en/stop/1396,,,,0,,
1066,1397,Empire Grade & Sunlit Ln,,,37.068131,-122.123344,,https://scmtd.com/en/stop/1397,,,,0,,
1067,1398,Empire Grade & Granger Rd,,,37.073196,-122.129517,,https://scmtd.com/en/stop/1398,,,,0,,
1068,1399,Empire Grade & Rustic Ln,,,37.074287,-122.130234,,https://scmtd.com/en/stop/1399,,,,0,,
1069,1404,Encinal & River,,,36.986710,-122.030769,,https://scmtd.com/en/stop/1404,,,,0,,
1070,1408,Delaware Ave & Fair Ave,,,36.955929,-122.045280,,https://scmtd.com/en/stop/1408,,,,0,,
1071,1425,Freedom Blvd & Soquel Dr,,,36.972557,-121.871498,,https://scmtd.com/en/stop/1425,,,,0,,
1072,1426,Freedom Blvd & Soquel Dr,,,36.972920,-121.870911,,https://scmtd.com/en/stop/1426,,,,0,,
1073,1427,Freedom Blvd (Aptos High School),,,36.975254,-121.869881,,https://scmtd.com/en/stop/1427,,,,0,,
1074,1428,Freedom Blvd (Aptos High School),,,36.975643,-121.869362,,https://scmtd.com/en/stop/1428,,,,0,,
1075,1429,Freedom Blvd & Valencia Rd,,,36.981274,-121.864647,,https://scmtd.com/en/stop/1429,,,,0,,
1076,1430,Freedom Blvd & Valencia Rd,,,36.981598,-121.864250,,https://scmtd.com/en/stop/1430,,,,0,,
1077,1431,Freedom Blvd & McDonald Rd,,,36.986607,-121.859665,,https://scmtd.com/en/stop/1431,,,,0,,
1078,1432,Freedom Blvd & McDonald Rd,,,36.986290,-121.859947,,https://scmtd.com/en/stop/1432,,,,0,,
1079,1433,Freedom Blvd & Parkhurst Cir,,,36.986561,-121.856277,,https://scmtd.com/en/stop/1433,,,,0,,
1080,1434,Freedom Blvd & Parkhurst Cir,,,36.986397,-121.856224,,https://scmtd.com/en/stop/1434,,,,0,,
1081,1435,Freedom Blvd (#5620),,,36.986664,-121.847649,,https://scmtd.com/en/stop/1435,,,,0,,
1082,1436,Freedom Blvd (#5620),,,36.986568,-121.847328,,https://scmtd.com/en/stop/1436,,,,0,,
1083,1437,Freedom Blvd (#5310),,,36.987724,-121.842270,,https://scmtd.com/en/stop/1437,,,,0,,
1084,1439,Freedom Blvd & Day Valley Rd,,,36.987881,-121.838165,,https://scmtd.com/en/stop/1439,,,,0,,
1085,1440,Freedom Blvd & Day Valley Rd,,,36.987694,-121.837944,,https://scmtd.com/en/stop/1440,,,,0,,
1086,1441,Freedom Blvd & La Vida Dr,,,36.980305,-121.828217,,https://scmtd.com/en/stop/1441,,,,0,,
1087,1442,Freedom Blvd & Pleasant Valley Rd,,,36.976585,-121.825348,,https://scmtd.com/en/stop/1442,,,,0,,
1088,1443,Freedom Blvd & Willow Heights,,,36.976177,-121.825211,,https://scmtd.com/en/stop/1443,,,,0,,
1089,1444,Freedom Blvd & Eagle Ridge (Scott Park),,,36.970886,-121.819077,,https://scmtd.com/en/stop/1444,,,,0,,
1090,1445,Freedom Blvd & White Rd (Scott Park),,,36.970436,-121.818985,,https://scmtd.com/en/stop/1445,,,,0,,
1091,1446,Freedom Blvd & Corralitos Rd,,,36.964157,-121.809837,,https://scmtd.com/en/stop/1446,,,,0,,
1092,1447,Freedom Blvd & Corralitos Rd,,,36.963253,-121.809448,,https://scmtd.com/en/stop/1447,,,,0,,
1093,1448,Freedom Blvd (Manns Apples),,,36.960724,-121.806229,,https://scmtd.com/en/stop/1448,,,,0,,
1094,1449,Freedom Blvd (Manns Apples),,,36.960606,-121.806358,,https://scmtd.com/en/stop/1449,,,,0,,
1095,1450,Freedom Blvd (Rider Apples),,,36.947907,-121.790741,,https://scmtd.com/en/stop/1450,,,,0,,
1096,1451,Freedom Blvd (Rider Apples),,,36.948822,-121.792099,,https://scmtd.com/en/stop/1451,,,,0,,
1097,1452,Freedom Blvd (Filipino Community Center),,,36.946781,-121.789612,,https://scmtd.com/en/stop/1452,,,,0,,
1098,1453,Freedom Blvd (Filipino Community Center),,,36.946686,-121.789742,,https://scmtd.com/en/stop/1453,,,,0,,
1100,1458,Glen Arbor Rd & Hermosa Ave,,,37.074276,-122.082520,,https://scmtd.com/en/stop/1458,,,,0,,
1101,1459,Glen Arbor Rd & Hermosa Ave,,,37.074192,-122.082664,,https://scmtd.com/en/stop/1459,,,,0,,
1102,1460,Glen Arbor Rd & Azalea Ave,,,37.075436,-122.080383,,https://scmtd.com/en/stop/1460,,,,0,,
1103,1461,Glen Arbor Rd & Azalea Ave,,,37.075413,-122.080284,,https://scmtd.com/en/stop/1461,,,,0,,
1104,1462,Glen Arbor Rd & Pine,,,37.088444,-122.084755,,https://scmtd.com/en/stop/1462,,,,0,,
1105,1463,Glen Arbor Rd & Quail Hollow Rd,,,37.078968,-122.077835,,https://scmtd.com/en/stop/1463,,,,0,,
1106,1465,Glen Arbor Rd & River,,,37.081215,-122.077965,,https://scmtd.com/en/stop/1465,,,,0,,
1107,1466,Glen Arbor Rd & Madrone Ave,,,37.083786,-122.081886,,https://scmtd.com/en/stop/1466,,,,0,,
1108,1467,Glen Arbor Rd & Madrone Ave,,,37.084080,-122.082275,,https://scmtd.com/en/stop/1467,,,,0,,
1109,1468,Glen Arbor Rd & Hillcrest Ave,,,37.085506,-122.083244,,https://scmtd.com/en/stop/1468,,,,0,,
1110,1470,Glen Arbor Rd & Locust,,,37.086822,-122.083870,,https://scmtd.com/en/stop/1470,,,,0,,
1111,1471,Glen Arbor Rd & Hihn Rd,,,37.078354,-122.079124,,https://scmtd.com/en/stop/1471,,,,0,,
1112,1472,Glen Arbor Rd & Hihn Rd,,,37.078114,-122.079514,,https://scmtd.com/en/stop/1472,,,,0,,
1113,1474,Glen Arbor Rd & Riverside Ave,,,37.088734,-122.087883,,https://scmtd.com/en/stop/1474,,,,0,,
1114,1492,Graham Hill Rd & Covered Bridge Rd N,,,37.052555,-122.072395,,https://scmtd.com/en/stop/1492,,,,0,,
1115,1499,Grant (Grant Park),,,36.985538,-122.021599,,https://scmtd.com/en/stop/1499,,,,0,,
1116,1501,Hagar Dr (UCSC - East Remote Parking),,,36.991314,-122.054665,,https://scmtd.com/en/stop/1501,,,,0,,
1117,1505,Heller Dr (UCSC - Oakes College),,,36.989945,-122.067200,,https://scmtd.com/en/stop/1505,,,,0,,
1118,1509,Heller Dr & McLaughlin Dr (UCSC - Kresge College),,,36.999287,-122.064552,,https://scmtd.com/en/stop/1509,,,,0,,
1119,1510,High & Western Dr,,,36.978645,-122.057823,,https://scmtd.com/en/stop/1510,,,,0,,
1120,1512,High & Moore,,,36.977596,-122.048607,,https://scmtd.com/en/stop/1512,,,,0,,
1121,1513,High & Moore,,,36.977860,-122.048325,,https://scmtd.com/en/stop/1513,,,,0,,
1122,1515,High & Laurent,,,36.977737,-122.042374,,https://scmtd.com/en/stop/1515,,,,0,,
1123,1516,High & Highland,,,36.977902,-122.033669,,https://scmtd.com/en/stop/1516,,,,0,,
1124,1517,Highland Ave & Escalona Dr,,,36.976994,-122.032921,,https://scmtd.com/en/stop/1517,,,,0,,
1125,1520,Hwy 1 & Davenport Ave (Cash Store),,,37.010872,-122.194145,,https://scmtd.com/en/stop/1520,,,,0,,
1126,1521,Hwy 1 & Coast Rd,,,36.982559,-122.143456,,https://scmtd.com/en/stop/1521,,,,0,,
1127,1527,Hwy 9 (#6519),,,37.055630,-122.075081,,https://scmtd.com/en/stop/1527,,,,0,,
1128,1529,Hwy 9 (Viking Cottages),,,37.058273,-122.077408,,https://scmtd.com/en/stop/1529,,,,0,,
1129,1530,Hwy 9 (SLV High School),,,37.061310,-122.080154,,https://scmtd.com/en/stop/1530,,,,0,,
1130,1531,Hwy 9 (SLV High School),,,37.061214,-122.080193,,https://scmtd.com/en/stop/1531,,,,0,,
1131,1532,Hwy 9 & El Solyo Heights Dr,,,37.065662,-122.079758,,https://scmtd.com/en/stop/1532,,,,0,,
1132,1533,Hwy 9 & El Solyo Heights Dr,,,37.066677,-122.079704,,https://scmtd.com/en/stop/1533,,,,0,,
1133,1534,Hwy 9 & Glen Lomond Ln,,,37.069176,-122.083977,,https://scmtd.com/en/stop/1534,,,,0,,
1134,1535,Hwy 9 & Sunnycroft Rd,,,37.071644,-122.084068,,https://scmtd.com/en/stop/1535,,,,0,,
1135,1536,Hwy 9 (Highlands Park),,,37.079186,-122.083565,,https://scmtd.com/en/stop/1536,,,,0,,
1136,1537,Hwy 9 (Highlands Park),,,37.079517,-122.083397,,https://scmtd.com/en/stop/1537,,,,0,,
1137,1538,Hwy 9 & Park Way,,,37.080986,-122.084381,,https://scmtd.com/en/stop/1538,,,,0,,
1138,1539,Hwy 9 & Shadowbrook Rd,,,37.081261,-122.084435,,https://scmtd.com/en/stop/1539,,,,0,,
1139,1541,Hwy 9 & Hillside Ave,,,37.087681,-122.088730,,https://scmtd.com/en/stop/1541,,,,0,,
1140,1542,Hwy 9 & Hillside Ave,,,37.087646,-122.088585,,https://scmtd.com/en/stop/1542,,,,0,,
1141,1543,Hwy 9 & Main,,,37.089657,-122.089676,,https://scmtd.com/en/stop/1543,,,,0,,
1142,1544,Hwy 9 & Main,,,37.089844,-122.089813,,https://scmtd.com/en/stop/1544,,,,0,,
1143,1547,Hwy 9 & Brown Gables Rd,,,37.092960,-122.096260,,https://scmtd.com/en/stop/1547,,,,0,,
1144,1548,Hwy 9 & California Dr,,,37.095730,-122.097420,,https://scmtd.com/en/stop/1548,,,,0,,
1145,1549,Hwy 9 & California Dr,,,37.095489,-122.097122,,https://scmtd.com/en/stop/1549,,,,0,,
1146,1550,Hwy 9 & Pike Rd,,,37.099701,-122.100967,,https://scmtd.com/en/stop/1550,,,,0,,
1147,1552,Hwy 9 & Western Ave,,,37.105839,-122.105988,,https://scmtd.com/en/stop/1552,,,,0,,
1148,1553,Hwy 9 & Larkspur,,,37.106651,-122.106560,,https://scmtd.com/en/stop/1553,,,,0,,
1149,1554,Hwy 9 & Clear Creek Rd,,,37.107697,-122.109261,,https://scmtd.com/en/stop/1554,,,,0,,
1150,1555,Hwy 9 & Pacific,,,37.107861,-122.109627,,https://scmtd.com/en/stop/1555,,,,0,,
1151,1556,Hwy 9 & Irwin Way,,,37.111294,-122.114410,,https://scmtd.com/en/stop/1556,,,,0,,
1152,1557,Hwy 9 & Irwin Way,,,37.111439,-122.114220,,https://scmtd.com/en/stop/1557,,,,0,,
1153,1558,Hwy 9 & River,,,37.116161,-122.120453,,https://scmtd.com/en/stop/1558,,,,0,,
1154,1559,Hwy 9 & River,,,37.116524,-122.120216,,https://scmtd.com/en/stop/1559,,,,0,,
1155,1560,Hwy 9 & Mountain,,,37.120399,-122.120834,,https://scmtd.com/en/stop/1560,,,,0,,
1156,1561,Hwy 9 & Lomond,,,37.123093,-122.121696,,https://scmtd.com/en/stop/1561,,,,0,,
1157,1564,Hwy 9 & Monaco Ln,,,37.133812,-122.125984,,https://scmtd.com/en/stop/1564,,,,0,,
1158,1565,Hwy 9 & Cresta Dr,,,37.138687,-122.129517,,https://scmtd.com/en/stop/1565,,,,0,,
1159,1567,Hwy 9 & Sequoia Rd,,,37.152439,-122.134529,,https://scmtd.com/en/stop/1567,,,,0,,
1161,1569,Hwy 9 & Sylvan Ave,,,37.195713,-122.145607,,https://scmtd.com/en/stop/1569,,,,0,,
1162,1570,Hwy 17 & Pasatiempo Dr,,,36.999294,-122.020912,,https://scmtd.com/en/stop/1570,,,,0,,
1163,1571,Hwy 17 & Pasatiempo Dr,,,36.999645,-122.022064,,https://scmtd.com/en/stop/1571,,,,0,,
1164,1585,5th Ave (Harbormaster),,,36.963802,-122.000298,,https://scmtd.com/en/stop/1585,,,,0,,
1165,1586,Lake Ave & Lago Ln,,,36.966976,-122.001083,,https://scmtd.com/en/stop/1586,,,,0,,
1166,1590,Laurel & Blackburn,,,36.968449,-122.031158,,https://scmtd.com/en/stop/1590,,,,0,,
1167,1591,Laurel & Center,,,36.968918,-122.027740,,https://scmtd.com/en/stop/1591,,,,0,,
1168,1615,McLaughlin Dr (UCSC - Science Hill),,,36.999973,-122.062332,,https://scmtd.com/en/stop/1615,,,,0,,
1169,1616,McLaughlin Dr (UCSC - College 9 & John R. Lewis),,,36.999924,-122.058319,,https://scmtd.com/en/stop/1616,,,,0,,
1170,1617,McLaughlin Dr (UCSC - Crown & Merrill College),,,36.999008,-122.055176,,https://scmtd.com/en/stop/1617,,,,0,,
1171,1619,Mission & Miramar Dr (Almar Shopping Ctr),,,36.962131,-122.044601,,https://scmtd.com/en/stop/1619,,,,0,,
1172,1620,Mission & Miramar Dr (Almar Shopping Ctr),,,36.962398,-122.044502,,https://scmtd.com/en/stop/1620,,,,0,,
1173,1623,Mission & Palm (Palm Center),,,36.965111,-122.041534,,https://scmtd.com/en/stop/1623,,,,0,,
1174,1624,Mission & Olive,,,36.965073,-122.041832,,https://scmtd.com/en/stop/1624,,,,0,,
1175,1625,Mission & Trescony,,,36.967289,-122.039131,,https://scmtd.com/en/stop/1625,,,,0,,
1176,1629,Mission & Laurel,,,36.969170,-122.037437,,https://scmtd.com/en/stop/1629,,,,0,,
1177,1630,Mission & Laurel,,,36.969029,-122.037788,,https://scmtd.com/en/stop/1630,,,,0,,
1178,1631,Mission & Rigg,,,36.970787,-122.036392,,https://scmtd.com/en/stop/1631,,,,0,,
1179,1633,Mission & Otis,,,36.970921,-122.036552,,https://scmtd.com/en/stop/1633,,,,0,,
1180,1638,Mission & Sylvar,,,36.977268,-122.030281,,https://scmtd.com/en/stop/1638,,,,0,,
1181,1647,Mt Hermon Rd & Covenant Ln,,,37.055664,-122.061325,,https://scmtd.com/en/stop/1647,,,,0,,
1182,1648,Mt Hermon Rd & Conference Dr,,,37.053524,-122.039589,,https://scmtd.com/en/stop/1648,,,,0,,
1183,1649,Mt Hermon Rd & Conference Dr,,,37.054188,-122.039986,,https://scmtd.com/en/stop/1649,,,,0,,
1184,1650,Mt Hermon Rd & Quarry Rd,,,37.049770,-122.036583,,https://scmtd.com/en/stop/1650,,,,0,,
1185,1651,Mt Hermon Rd & Lockhart Gulch Rd,,,37.050823,-122.037148,,https://scmtd.com/en/stop/1651,,,,0,,
1186,1652,Mt Hermon Rd & Kings Village Rd,,,37.045651,-122.027496,,https://scmtd.com/en/stop/1652,,,,0,,
1187,1653,Mt Hermon Rd (Graham Plaza),,,37.044693,-122.026665,,https://scmtd.com/en/stop/1653,,,,0,,
1188,1654,Mt Hermon Rd & Whispering Pines Dr,,,37.042404,-122.024902,,https://scmtd.com/en/stop/1654,,,,0,,
1189,1658,Murray & Seabright Ave,,,36.967262,-122.007477,,https://scmtd.com/en/stop/1658,,,,0,,
1190,1664,Ocean & Water,,,36.979939,-122.021240,,https://scmtd.com/en/stop/1664,,,,0,,
1192,1666,Ocean & Hubbard,,,36.982430,-122.022217,,https://scmtd.com/en/stop/1666,,,,0,,
1194,1671,Pine Flat Rd & Empire Grade,,,37.078445,-122.133873,,https://scmtd.com/en/stop/1671,,,,0,,
1195,1672,Pine Flat Rd & Empire Grade,,,37.078674,-122.133743,,https://scmtd.com/en/stop/1672,,,,0,,
1197,1678,Pool Dr & Hwy 9 (Mountain Store),,,37.154930,-122.133217,,https://scmtd.com/en/stop/1678,,,,0,,
1198,1681,Portola Dr & 18th Ave,,,36.962604,-121.987198,,https://scmtd.com/en/stop/1681,,,,0,,
1199,1682,Portola Dr & Clearwater Ct,,,36.962486,-121.983597,,https://scmtd.com/en/stop/1682,,,,0,,
1200,1683,Portola Dr & 21st Ave,,,36.962254,-121.984566,,https://scmtd.com/en/stop/1683,,,,0,,
1201,1685,Portola Dr & 24th Ave (Live Oak Library),,,36.962967,-121.980385,,https://scmtd.com/en/stop/1685,,,,0,,
1202,1686,Portola Dr & 26th Ave (Trailer Haven),,,36.963348,-121.974937,,https://scmtd.com/en/stop/1686,,,,0,,
1203,1687,Portola Dr & 30th Ave,,,36.963566,-121.973892,,https://scmtd.com/en/stop/1687,,,,0,,
1204,1688,Portola Dr & 30th Ave,,,36.963345,-121.972389,,https://scmtd.com/en/stop/1688,,,,0,,
1205,1690,Portola Dr & 35th Ave,,,36.963554,-121.971924,,https://scmtd.com/en/stop/1690,,,,0,,
1206,1692,Portola Dr & 37th Ave,,,36.963535,-121.968834,,https://scmtd.com/en/stop/1692,,,,0,,
1207,1693,Portola Dr & 37th Ave,,,36.963318,-121.968773,,https://scmtd.com/en/stop/1693,,,,0,,
1208,1703,Rio Del Mar Blvd & Kingsbury Dr,,,36.968151,-121.901215,,https://scmtd.com/en/stop/1703,,,,0,,
1209,1705,Rio Del Mar Blvd & Highland Dr,,,36.969090,-121.899513,,https://scmtd.com/en/stop/1705,,,,0,,
1210,1707,Rio Del Mar Blvd & Martin Dr,,,36.970234,-121.898155,,https://scmtd.com/en/stop/1707,,,,0,,
1211,1708,Rio Del Mar Blvd & Sumner Ave,,,36.971050,-121.896011,,https://scmtd.com/en/stop/1708,,,,0,,
1212,1710,Rio Del Mar Blvd & Palmer Ave,,,36.971233,-121.891838,,https://scmtd.com/en/stop/1710,,,,0,,
1213,1712,Rio Del Mar Blvd & Clubhouse Dr,,,36.973217,-121.888908,,https://scmtd.com/en/stop/1712,,,,0,,
1214,1713,River (River/Front Garage),,,36.976425,-122.025192,,https://scmtd.com/en/stop/1713,,,,0,,
1215,1714,River & N Pacific Ave,,,36.979210,-122.027489,,https://scmtd.com/en/stop/1714,,,,0,,
1216,1715,River & Josephine,,,36.981705,-122.029190,,https://scmtd.com/en/stop/1715,,,,0,,
1217,1717,River & Golf Club Dr (City Corp. Yard),,,36.988747,-122.030769,,https://scmtd.com/en/stop/1717,,,,0,,
1218,1731,Scotts Valley Dr & Bean Creek Rd (Middle School),,,37.044632,-122.023293,,https://scmtd.com/en/stop/1731,,,,0,,
1219,1733,Scotts Valley Dr & Blake Lane,,,37.045773,-122.021118,,https://scmtd.com/en/stop/1733,,,,0,,
1220,1734,Scotts Valley Dr & Civic Center Dr,,,37.048088,-122.017265,,https://scmtd.com/en/stop/1734,,,,0,,
1221,1735,Scotts Valley Dr & Disc Dr,,,37.048546,-122.016434,,https://scmtd.com/en/stop/1735,,,,0,,
1222,1738,Scotts Valley Dr & Dunslee Way,,,37.052338,-122.013596,,https://scmtd.com/en/stop/1738,,,,0,,
1223,1739,Scotts Valley Dr & Dunslee Way,,,37.052372,-122.013931,,https://scmtd.com/en/stop/1739,,,,0,,
1224,1740,Scotts Valley Dr & Frapwell Cir,,,37.055168,-122.012421,,https://scmtd.com/en/stop/1740,,,,0,,
1225,1741,Scotts Valley Dr & Victor Square,,,37.058823,-122.010323,,https://scmtd.com/en/stop/1741,,,,0,,
1227,1743,Scotts Valley Dr (#5437 Executive Center),,,37.060120,-122.009262,,https://scmtd.com/en/stop/1743,,,,0,,
1228,1744,Scotts Valley Dr & Victor Square,,,37.059498,-122.009407,,https://scmtd.com/en/stop/1744,,,,0,,
1229,1745,Scotts Valley Dr & Granite Creek Rd,,,37.061550,-122.007301,,https://scmtd.com/en/stop/1745,,,,0,,
1230,1748,Scotts Valley Dr & Terrace View Dr,,,37.046673,-122.019424,,https://scmtd.com/en/stop/1748,,,,0,,
1231,1749,Scotts Valley Dr & Oak Creek Blvd,,,37.046619,-122.018944,,https://scmtd.com/en/stop/1749,,,,0,,
1232,1750,Seabright Ave & Murray,,,36.967537,-122.007759,,https://scmtd.com/en/stop/1750,,,,0,,
1233,1751,Seabright Ave & Logan,,,36.968437,-122.008018,,https://scmtd.com/en/stop/1751,,,,0,,
1234,1752,Seabright Ave & Hall,,,36.968861,-122.007881,,https://scmtd.com/en/stop/1752,,,,0,,
1235,1754,Seabright Ave & Clinton,,,36.971500,-122.007980,,https://scmtd.com/en/stop/1754,,,,0,,
1236,1755,Seabright Ave & Clinton,,,36.971386,-122.008125,,https://scmtd.com/en/stop/1755,,,,0,,
1237,1756,Seabright Ave & Windham,,,36.973316,-122.008095,,https://scmtd.com/en/stop/1756,,,,0,,
1238,1757,Seabright Ave & Windsor,,,36.974281,-122.008080,,https://scmtd.com/en/stop/1757,,,,0,,
1239,1758,Seabright Ave & Windsor,,,36.974441,-122.008301,,https://scmtd.com/en/stop/1758,,,,0,,
1240,1775,Seascape Blvd & Vineyard Ct,,,36.952278,-121.873009,,https://scmtd.com/en/stop/1775,,,,0,,
1241,1777,Seascape Blvd & Dolphin Dr,,,36.951683,-121.869675,,https://scmtd.com/en/stop/1777,,,,0,,
1244,1782,Soquel Ave & Ocean,,,36.974438,-122.019623,,https://scmtd.com/en/stop/1782,,,,0,,
1245,1783,Soquel Ave & Ocean,,,36.974598,-122.018517,,https://scmtd.com/en/stop/1783,,,,0,,
1247,1788,Soquel Ave & Pine,,,36.977913,-122.014389,,https://scmtd.com/en/stop/1788,,,,0,,
1250,1792,Soquel Ave & Seabright Ave,,,36.979675,-122.011070,,https://scmtd.com/en/stop/1792,,,,0,,
1251,1793,Soquel Ave & Seabright Ave,,,36.980080,-122.009750,,https://scmtd.com/en/stop/1793,,,,0,,
1252,1794,Soquel Ave & Poplar Ave,,,36.980846,-122.008446,,https://scmtd.com/en/stop/1794,,,,0,,
1253,1795,Soquel Ave & Frederick,,,36.981407,-122.004150,,https://scmtd.com/en/stop/1795,,,,0,,
1254,1796,Soquel Ave & San Juan Ave,,,36.981586,-122.003937,,https://scmtd.com/en/stop/1796,,,,0,,
1255,1797,Soquel Ave & Hagemann Ave,,,36.981316,-122.002060,,https://scmtd.com/en/stop/1797,,,,0,,
1256,1798,Soquel Ave & Trevethan Ave,,,36.981537,-122.001526,,https://scmtd.com/en/stop/1798,,,,0,,
1257,1799,Soquel Ave & Park Way,,,36.981796,-121.998512,,https://scmtd.com/en/stop/1799,,,,0,,
1258,1800,Soquel Ave & Park Way,,,36.981575,-121.998894,,https://scmtd.com/en/stop/1800,,,,0,,
1259,1801,Soquel Ave & La Fonda Ave,,,36.983223,-121.995224,,https://scmtd.com/en/stop/1801,,,,0,,
1260,1802,Soquel Ave & La Fonda Ave,,,36.982987,-121.995026,,https://scmtd.com/en/stop/1802,,,,0,,
1261,1803,Soquel Ave & 7th Ave,,,36.985233,-121.990616,,https://scmtd.com/en/stop/1803,,,,0,,
1262,1804,Soquel Ave & 7th Ave,,,36.985344,-121.989456,,https://scmtd.com/en/stop/1804,,,,0,,
1263,1805,Soquel Dr (Dominican Hospital),,,36.988644,-121.983345,,https://scmtd.com/en/stop/1805,,,,0,,
1264,1806,Soquel Dr (Dominican Hospital),,,36.988667,-121.982544,,https://scmtd.com/en/stop/1806,,,,0,,
1267,1809,Soquel Dr & Thurber Ln,,,36.988811,-121.978905,,https://scmtd.com/en/stop/1809,,,,0,,
1268,1810,Soquel Dr & Winkle Ave,,,36.988236,-121.974579,,https://scmtd.com/en/stop/1810,,,,0,,
1269,1811,Soquel Dr & Winkle Ave,,,36.988003,-121.974335,,https://scmtd.com/en/stop/1811,,,,0,,
1271,1814,Soquel Dr & Rodeo Gulch Rd,,,36.987434,-121.968498,,https://scmtd.com/en/stop/1814,,,,0,,
1272,1817,Soquel Dr & 41st Ave,,,36.987656,-121.963936,,https://scmtd.com/en/stop/1817,,,,0,,
1273,1818,Soquel Dr & 41st Ave,,,36.987473,-121.964043,,https://scmtd.com/en/stop/1818,,,,0,,
1274,1820,Soquel Dr & Daubenbiss Ave,,,36.987640,-121.958481,,https://scmtd.com/en/stop/1820,,,,0,,
1275,1821,Soquel Dr & Daubenbiss Ave,,,36.987831,-121.958763,,https://scmtd.com/en/stop/1821,,,,0,,
1276,1822,Soquel Dr & Main,,,36.988930,-121.954857,,https://scmtd.com/en/stop/1822,,,,0,,
1277,1823,Soquel Dr & Main,,,36.988735,-121.954994,,https://scmtd.com/en/stop/1823,,,,0,,
1278,1824,Soquel Dr & E Walnut,,,36.987358,-121.952431,,https://scmtd.com/en/stop/1824,,,,0,,
1279,1825,Soquel Dr & Capitola Ave,,,36.987072,-121.950851,,https://scmtd.com/en/stop/1825,,,,0,,
1280,1826,Soquel Dr & Capitola Ave,,,36.987335,-121.950958,,https://scmtd.com/en/stop/1826,,,,0,,
1281,1827,Soquel Dr & Browns Ln,,,36.987637,-121.948311,,https://scmtd.com/en/stop/1827,,,,0,,
1282,1828,Soquel Dr & Orchard,,,36.987556,-121.947090,,https://scmtd.com/en/stop/1828,,,,0,,
1283,1829,Soquel Dr & Fairway Dr,,,36.987823,-121.946442,,https://scmtd.com/en/stop/1829,,,,0,,
1284,1830,Soquel Dr & Silver Birch Ln,,,36.987709,-121.944557,,https://scmtd.com/en/stop/1830,,,,0,,
1285,1831,Soquel Dr & Cunnison Ln,,,36.987965,-121.943474,,https://scmtd.com/en/stop/1831,,,,0,,
1286,1832,Soquel Dr & Monterey Ave,,,36.987701,-121.940834,,https://scmtd.com/en/stop/1832,,,,0,,
1287,1833,Soquel Dr & Maplethorpe Ln,,,36.988136,-121.938110,,https://scmtd.com/en/stop/1833,,,,0,,
1288,1834,Soquel Dr & Park Ave,,,36.988773,-121.936668,,https://scmtd.com/en/stop/1834,,,,0,,
1289,1835,Soquel Dr & Park Ave,,,36.988640,-121.936417,,https://scmtd.com/en/stop/1835,,,,0,,
1290,1836,Soquel Dr & Willowbrook Ln,,,36.990021,-121.932350,,https://scmtd.com/en/stop/1836,,,,0,,
1291,1837,Soquel Dr & Merrill Rd,,,36.990124,-121.932785,,https://scmtd.com/en/stop/1837,,,,0,,
1292,1838,Soquel Dr & Porter Gulch Rd,,,36.990547,-121.929962,,https://scmtd.com/en/stop/1838,,,,0,,
1293,1839,Soquel Dr & Cabrillo College Dr,,,36.988716,-121.925934,,https://scmtd.com/en/stop/1839,,,,0,,
1294,1840,Soquel Dr & Cabrillo College Dr,,,36.988106,-121.924599,,https://scmtd.com/en/stop/1840,,,,0,,
1295,1841,Soquel Dr & Borregas Dr,,,36.987057,-121.920822,,https://scmtd.com/en/stop/1841,,,,0,,
1296,1842,Soquel Dr & Calabria,,,36.985977,-121.918098,,https://scmtd.com/en/stop/1842,,,,0,,
1297,1843,Soquel Dr & Vienna Dr (Mar Vista Elem),,,36.986355,-121.919319,,https://scmtd.com/en/stop/1843,,,,0,,
1298,1844,Soquel Dr & Mar Vista Dr,,,36.984833,-121.915833,,https://scmtd.com/en/stop/1844,,,,0,,
1299,1845,Soquel Dr & Mar Vista Dr,,,36.984703,-121.916023,,https://scmtd.com/en/stop/1845,,,,0,,
1300,1846,Soquel Dr & W Ledyard Way,,,36.982510,-121.911064,,https://scmtd.com/en/stop/1846,,,,0,,
1301,1847,Soquel Dr & W Ledyard Way,,,36.981739,-121.910255,,https://scmtd.com/en/stop/1847,,,,0,,
1302,1848,Soquel Dr & State Park Dr,,,36.980454,-121.908997,,https://scmtd.com/en/stop/1848,,,,0,,
1303,1849,Soquel Dr & E Ledyard Way (Aptos Library),,,36.980858,-121.908981,,https://scmtd.com/en/stop/1849,,,,0,,
1304,1850,Soquel Dr (Rancho Del Mar Center),,,36.978474,-121.907341,,https://scmtd.com/en/stop/1850,,,,0,,
1305,1851,Soquel Dr & State Park Dr,,,36.979732,-121.908195,,https://scmtd.com/en/stop/1851,,,,0,,
1306,1852,Soquel Dr & Trout Gulch Rd,,,36.976662,-121.899879,,https://scmtd.com/en/stop/1852,,,,0,,
1307,1853,Soquel Dr & Trout Gulch Rd,,,36.976547,-121.900009,,https://scmtd.com/en/stop/1853,,,,0,,
1308,1854,Soquel Dr (Creekside Offices),,,36.975746,-121.889977,,https://scmtd.com/en/stop/1854,,,,0,,
1309,1855,Soquel Dr (Creekside Offices),,,36.975594,-121.890137,,https://scmtd.com/en/stop/1855,,,,0,,
1310,1856,Soquel Dr & Monroe Ave,,,36.975849,-121.884499,,https://scmtd.com/en/stop/1856,,,,0,,
1311,1857,Soquel Dr (Aptos Gateway),,,36.975323,-121.884949,,https://scmtd.com/en/stop/1857,,,,0,,
1312,1858,Soquel Dr & Jaunell Rd,,,36.973389,-121.880272,,https://scmtd.com/en/stop/1858,,,,0,,
1313,1859,Soquel Dr & Monroe Ave (Auto Center),,,36.971237,-121.873734,,https://scmtd.com/en/stop/1859,,,,0,,
1314,1861,State Park Dr & Hillcrest Dr,,,36.975044,-121.912033,,https://scmtd.com/en/stop/1861,,,,0,,
1315,1862,Stockton Ave & Esplanade,,,36.972946,-121.952324,,https://scmtd.com/en/stop/1862,,,,0,,
1316,1863,Stockton Ave & Esplanade,,,36.972805,-121.952240,,https://scmtd.com/en/stop/1863,,,,0,,
1317,1865,Sumner Ave & Dolphin Dr,,,36.953926,-121.879311,,https://scmtd.com/en/stop/1865,,,,0,,
1318,1867,Sumner & Seabreeze/Clubhouse,,,36.956940,-121.882614,,https://scmtd.com/en/stop/1867,,,,0,,
1319,1875,Treasure Island Dr & Winfield Way,,,36.971302,-121.903809,,https://scmtd.com/en/stop/1875,,,,0,,
1320,1883,Walnut Ave & California,,,36.972141,-122.033958,,https://scmtd.com/en/stop/1883,,,,0,,
1321,1884,Walnut & California,,,36.971966,-122.033852,,https://scmtd.com/en/stop/1884,,,,0,,
1322,1885,Walnut Ave & Chestnut,,,36.972759,-122.030441,,https://scmtd.com/en/stop/1885,,,,0,,
1323,1886,Walnut Ave & Chestnut,,,36.972527,-122.030815,,https://scmtd.com/en/stop/1886,,,,0,,
1324,1887,Walnut Ave & Center,,,36.973164,-122.028252,,https://scmtd.com/en/stop/1887,,,,0,,
1325,1892,Water (Governmental Center),,,36.978519,-122.023933,,https://scmtd.com/en/stop/1892,,,,0,,
1326,1893,Water & Ocean,,,36.979584,-122.020844,,https://scmtd.com/en/stop/1893,,,,0,,
1327,1894,Water & Ocean,,,36.979523,-122.021805,,https://scmtd.com/en/stop/1894,,,,0,,
1328,1895,Water & Market,,,36.980312,-122.019409,,https://scmtd.com/en/stop/1895,,,,0,,
1329,1896,Water & Market,,,36.980072,-122.019371,,https://scmtd.com/en/stop/1896,,,,0,,
1330,1899,Water & N Branciforte Ave,,,36.981499,-122.014587,,https://scmtd.com/en/stop/1899,,,,0,,
1331,1900,Water & N Branciforte Ave,,,36.981369,-122.012978,,https://scmtd.com/en/stop/1900,,,,0,,
1332,1901,Water & Seabright Ave,,,36.981480,-122.010902,,https://scmtd.com/en/stop/1901,,,,0,,
1333,1903,Water & Poplar,,,36.981461,-122.008530,,https://scmtd.com/en/stop/1903,,,,0,,
1334,1907,Western Dr & Flower,,,36.964211,-122.056625,,https://scmtd.com/en/stop/1907,,,,0,,
1335,1909,Western Dr & Monarch Way,,,36.970291,-122.058418,,https://scmtd.com/en/stop/1909,,,,0,,
1336,1910,Western Dr & Meder,,,36.973766,-122.058350,,https://scmtd.com/en/stop/1910,,,,0,,
1337,1914,7th Ave & Bonnie,,,36.964241,-121.998367,,https://scmtd.com/en/stop/1914,,,,0,,
1338,1915,7th Ave & Dolores,,,36.966290,-121.998093,,https://scmtd.com/en/stop/1915,,,,0,,
1339,1916,7th Ave & Harbor Cove,,,36.973236,-121.995453,,https://scmtd.com/en/stop/1916,,,,0,,
1340,1917,7th Ave & Manor Way (Yacht Harbor Manor),,,36.974007,-121.994766,,https://scmtd.com/en/stop/1917,,,,0,,
1341,1919,7th Ave & Eddy Ln (Inland Harbor),,,36.976334,-121.993401,,https://scmtd.com/en/stop/1919,,,,0,,
1342,1921,7th Ave & Cambria Ln,,,36.976723,-121.993439,,https://scmtd.com/en/stop/1921,,,,0,,
1343,1922,7th Ave & Capitola Rd,,,36.978916,-121.992165,,https://scmtd.com/en/stop/1922,,,,0,,
1345,1986,Bear Creek Rd & Deerwood Dr,,,37.141563,-122.090965,,https://scmtd.com/en/stop/1986,,,,0,,
1346,1987,Ocean (Pacific School),,,37.011837,-122.195023,,https://scmtd.com/en/stop/1987,,,,0,,
1348,1992,Lincoln & Stanford,,,36.920963,-121.759163,,https://scmtd.com/en/stop/1992,,,,0,,
1349,1993,Lincoln & California,,,36.918415,-121.756775,,https://scmtd.com/en/stop/1993,,,,0,,
1351,1995,Clubhouse Dr & Pinehurst Dr,,,36.961304,-121.878349,,https://scmtd.com/en/stop/1995,,,,0,,
1352,2007,Soquel Dr & Monroe Ave (Auto Center),,,36.971603,-121.875214,,https://scmtd.com/en/stop/2007,,,,0,,
1353,2056,Bay & King,,,36.967911,-122.042747,,https://scmtd.com/en/stop/2056,,,,0,,
1354,2061,Delaware Ave & Bethany Curve,,,36.956619,-122.040222,,https://scmtd.com/en/stop/2061,,,,0,,
1355,2085,Mission & Sylvar,,,36.977467,-122.030075,,https://scmtd.com/en/stop/2085,,,,0,,
1356,2086,High & Laurent,,,36.977577,-122.042175,,https://scmtd.com/en/stop/2086,,,,0,,
1357,2090,High & Cardiff,,,36.977375,-122.050362,,https://scmtd.com/en/stop/2090,,,,0,,
1358,2091,High & Cardiff,,,36.977268,-122.050232,,https://scmtd.com/en/stop/2091,,,,0,,
1359,2095,Hwy 1 & Western Dr,,,36.961010,-122.057297,,https://scmtd.com/en/stop/2095,,,,0,,
1360,2101,Hagar Dr (UCSC - East Field House),,,36.994263,-122.055511,,https://scmtd.com/en/stop/2101,,,,0,,
1361,2102,"Hagar Dr (UCSC - Bookstore, Cowell & Stevenson)",,,36.997498,-122.055061,,https://scmtd.com/en/stop/2102,,,,0,,
1362,2114,Grant (Grant Park),,,36.985661,-122.021584,,https://scmtd.com/en/stop/2114,,,,0,,
1363,2124,Hwy 9 & Mountain,,,37.120377,-122.120956,,https://scmtd.com/en/stop/2124,,,,0,,
1364,2125,Hwy 9 & Willowbrook Dr,,,37.071594,-122.084244,,https://scmtd.com/en/stop/2125,,,,0,,
1365,2127,Glen Arbor Rd & River,,,37.081112,-122.077751,,https://scmtd.com/en/stop/2127,,,,0,,
1366,2128,Hwy 9 & Brown Gables Rd,,,37.092968,-122.096474,,https://scmtd.com/en/stop/2128,,,,0,,
1367,2132,Bonny Doon Rd & Thayer Rd,,,37.054691,-122.160866,,https://scmtd.com/en/stop/2132,,,,0,,
1368,2133,Empire Grade (UCSC path),,,37.003265,-122.073166,,https://scmtd.com/en/stop/2133,,,,0,,
1369,2134,Empire Grade & Smith Grade,,,37.027748,-122.099716,,https://scmtd.com/en/stop/2134,,,,0,,
1370,2135,Bonny Doon Rd & Pine Flat Rd,,,37.041912,-122.150681,,https://scmtd.com/en/stop/2135,,,,0,,
1371,2136,Pine Flat Rd (Bonny Doon Elementary),,,37.061775,-122.148544,,https://scmtd.com/en/stop/2136,,,,0,,
1372,2137,Pine Flat Rd & Kelly Ln,,,37.067280,-122.141121,,https://scmtd.com/en/stop/2137,,,,0,,
1373,2138,Pine Flat Rd & Atherley Ln,,,37.079155,-122.138542,,https://scmtd.com/en/stop/2138,,,,0,,
1374,2139,Pine Flat Rd & Comstock Ln,,,37.080856,-122.141106,,https://scmtd.com/en/stop/2139,,,,0,,
1375,2140,Pine Flat Rd & Comstock Ln,,,37.081173,-122.140335,,https://scmtd.com/en/stop/2140,,,,0,,
1376,2141,Pine Flat Rd (#2175),,,37.069073,-122.142029,,https://scmtd.com/en/stop/2141,,,,0,,
1377,2142,Pine Flat Rd & Bonny Doon Rd,,,37.064308,-122.145187,,https://scmtd.com/en/stop/2142,,,,0,,
1379,2144,41st Ave & Capitola Rd,,,36.974438,-121.964790,,https://scmtd.com/en/stop/2144,,,,0,,
1381,2148,41st Ave & Clares,,,36.979519,-121.964760,,https://scmtd.com/en/stop/2148,,,,0,,
1382,2149,41st Ave (Home Depot),,,36.984924,-121.964783,,https://scmtd.com/en/stop/2149,,,,0,,
1383,2151,41st Ave & Gross Rd,,,36.980217,-121.965096,,https://scmtd.com/en/stop/2151,,,,0,,
1384,2152,41st Ave & Cordelia Ln,,,36.985123,-121.965050,,https://scmtd.com/en/stop/2152,,,,0,,
1385,2158,38th Ave & Avis Ln,,,36.964314,-121.967354,,https://scmtd.com/en/stop/2158,,,,0,,
1386,2159,38th Ave & Tranquility Ct,,,36.965317,-121.967468,,https://scmtd.com/en/stop/2159,,,,0,,
1387,2160,38th Ave & Roland,,,36.966049,-121.967293,,https://scmtd.com/en/stop/2160,,,,0,,
1388,2161,38th Ave (Castle Mobile Estate),,,36.967449,-121.967453,,https://scmtd.com/en/stop/2161,,,,0,,
1389,2162,38th Ave (Capitola Manor),,,36.967766,-121.967308,,https://scmtd.com/en/stop/2162,,,,0,,
1390,2163,38th Ave (Blue & Gold),,,36.968742,-121.967445,,https://scmtd.com/en/stop/2163,,,,0,,
1391,2164,38th Ave & Reposa (Blue & Gold),,,36.969456,-121.967316,,https://scmtd.com/en/stop/2164,,,,0,,
1392,2166,38th Ave (King's Plaza),,,36.972103,-121.967323,,https://scmtd.com/en/stop/2166,,,,0,,
1393,2167,41st Ave (King's Plaza),,,36.971706,-121.965065,,https://scmtd.com/en/stop/2167,,,,0,,
1394,2170,17th Ave & Brommer,,,36.970665,-121.984764,,https://scmtd.com/en/stop/2170,,,,0,,
1395,2171,17th Ave & Felt,,,36.967159,-121.985489,,https://scmtd.com/en/stop/2171,,,,0,,
1396,2172,17th Ave & Merrill,,,36.964989,-121.986740,,https://scmtd.com/en/stop/2172,,,,0,,
1397,2173,17th Ave & Matthews Ln,,,36.963676,-121.987267,,https://scmtd.com/en/stop/2173,,,,0,,
1398,2174,17th Ave & Merrill,,,36.965302,-121.986320,,https://scmtd.com/en/stop/2174,,,,0,,
1399,2175,17th Ave & Felt,,,36.967182,-121.985222,,https://scmtd.com/en/stop/2175,,,,0,,
1400,2177,Portola Dr & Corcoran Ave,,,36.962898,-121.981438,,https://scmtd.com/en/stop/2177,,,,0,,
1401,2178,17th Ave & Kinsley,,,36.969753,-121.984810,,https://scmtd.com/en/stop/2178,,,,0,,
1402,2186,Soquel Ave & Darwin,,,36.980850,-122.008003,,https://scmtd.com/en/stop/2186,,,,0,,
1403,2191,W Lake Ave & Main,,,36.911495,-121.758659,,https://scmtd.com/en/stop/2191,,,,0,,
1404,2192,Rodriguez & Main (The Pines Apts),,,36.914330,-121.764458,,https://scmtd.com/en/stop/2192,,,,0,,
1405,2195,Amesti Rd & Paraiso Dr,,,36.953503,-121.777710,,https://scmtd.com/en/stop/2195,,,,0,,
1406,2196,Amesti Rd & E Rianda Rd,,,36.959873,-121.787170,,https://scmtd.com/en/stop/2196,,,,0,,
1407,2197,Amesti Rd & Alaga Ln,,,36.961891,-121.790154,,https://scmtd.com/en/stop/2197,,,,0,,
1408,2198,Amesti Rd & Pioneer Rd,,,36.971062,-121.794975,,https://scmtd.com/en/stop/2198,,,,0,,
1409,2199,Varni Rd & Amesti Rd,,,36.971138,-121.795738,,https://scmtd.com/en/stop/2199,,,,0,,
1410,2204,Rodriguez & Main (The Pines Apts),,,36.914402,-121.764648,,https://scmtd.com/en/stop/2204,,,,0,,
1411,2205,Rodriguez & Kearney,,,36.911034,-121.761307,,https://scmtd.com/en/stop/2205,,,,0,,
1412,2208,Buena Vista Dr & Miller Ave,,,36.941654,-121.784241,,https://scmtd.com/en/stop/2208,,,,0,,
1413,2209,Anna & Hanger Way,,,36.925873,-121.790672,,https://scmtd.com/en/stop/2209,,,,0,,
1414,2211,Clifford Ave & Evelyn Ave,,,36.929199,-121.769669,,https://scmtd.com/en/stop/2211,,,,0,,
1415,2212,Herman Ave & Kralj Dr,,,36.923138,-121.784691,,https://scmtd.com/en/stop/2212,,,,0,,
1416,2214,Anna & Herman Ave,,,36.925499,-121.785263,,https://scmtd.com/en/stop/2214,,,,0,,
1417,2220,S Green Valley Rd & Maranatha Dr,,,36.925472,-121.779732,,https://scmtd.com/en/stop/2220,,,,0,,
1418,2224,Freedom Blvd & Roache Rd,,,36.936756,-121.775597,,https://scmtd.com/en/stop/2224,,,,0,,
1419,2225,Green Valley Rd & Celia Dr,,,36.954182,-121.764832,,https://scmtd.com/en/stop/2225,,,,0,,
1420,2226,Green Valley Rd & Poultry Ln (Mesa Village),,,36.965241,-121.765091,,https://scmtd.com/en/stop/2226,,,,0,,
1421,2227,Green Valley Rd & Trembly Ln,,,36.957768,-121.765015,,https://scmtd.com/en/stop/2227,,,,0,,
1422,2228,Green Valley Rd & Behler Rd (Pinto Lake Pk),,,36.948059,-121.765633,,https://scmtd.com/en/stop/2228,,,,0,,
1423,2233,College Rd & Taylor Rd (Drew Lake),,,36.933743,-121.735931,,https://scmtd.com/en/stop/2233,,,,0,,
1424,2234,E Lake & Nugent Ave,,,36.929527,-121.744766,,https://scmtd.com/en/stop/2234,,,,0,,
1427,2244,Center Ave & Sea Terrace Way,,,36.974503,-121.905243,,https://scmtd.com/en/stop/2244,,,,0,,
1428,2259,Green Valley Rd & Mesa Verde Dr,,,36.969402,-121.765289,,https://scmtd.com/en/stop/2259,,,,0,,
1429,2260,Wheelock Rd & Casserly Rd,,,36.972771,-121.764694,,https://scmtd.com/en/stop/2260,,,,0,,
1430,2261,Wheelock Rd (#102),,,36.976376,-121.766792,,https://scmtd.com/en/stop/2261,,,,0,,
1431,2262,Wheelock Rd & Gilchrist Ln,,,36.979382,-121.766594,,https://scmtd.com/en/stop/2262,,,,0,,
1432,2263,Wheelock Rd (Monte Vista School),,,36.981682,-121.768921,,https://scmtd.com/en/stop/2263,,,,0,,
1433,2264,Wheelock Rd & Green Valley Rd,,,36.980419,-121.776428,,https://scmtd.com/en/stop/2264,,,,0,,
1434,2265,Green Valley Rd & Kliewer Ln,,,36.970734,-121.770912,,https://scmtd.com/en/stop/2265,,,,0,,
1435,2270,Broadway & Cayuga,,,36.975204,-122.010735,,https://scmtd.com/en/stop/2270,,,,0,,
1436,2271,Broadway & S Branciforte Ave,,,36.974762,-122.014656,,https://scmtd.com/en/stop/2271,,,,0,,
1437,2272,Broadway & S Branciforte Ave,,,36.974663,-122.014534,,https://scmtd.com/en/stop/2272,,,,0,,
1438,2280,Seascape Blvd & Sumner Ave,,,36.952087,-121.876511,,https://scmtd.com/en/stop/2280,,,,0,,
1439,2286,Mt Hermon Rd (King's Village Shopping Ctr),,,37.047249,-122.031448,,https://scmtd.com/en/stop/2286,,,,0,,
1440,2288,Glen Arbor Rd & Hwy 9,,,37.088829,-122.088280,,https://scmtd.com/en/stop/2288,,,,0,,
1441,2291,Bay & California,,,36.963669,-122.035782,,https://scmtd.com/en/stop/2291,,,,0,,
1442,2294,Glen Arbor Rd & Locust,,,37.086674,-122.083931,,https://scmtd.com/en/stop/2294,,,,0,,
1443,2296,Brommer & Odyssey Ct,,,36.972096,-121.990547,,https://scmtd.com/en/stop/2296,,,,0,,
1444,2297,Main & Rodriguez,,,36.915394,-121.763992,,https://scmtd.com/en/stop/2297,,,,0,,
1445,2301,Walnut Ave & Center,,,36.972977,-122.028458,,https://scmtd.com/en/stop/2301,,,,0,,
1447,2303,Cedar & Cathcart,,,36.971596,-122.026779,,https://scmtd.com/en/stop/2303,,,,0,,
1449,2308,Cedar & Lincoln,,,36.972240,-122.027130,,https://scmtd.com/en/stop/2308,,,,0,,
1450,2310,Empire Grade (#2519),,,37.011620,-122.075348,,https://scmtd.com/en/stop/2310,,,,0,,
1451,2328,Empire Grade (UCSC - Arboretum),,,36.983685,-122.064934,,https://scmtd.com/en/stop/2328,,,,0,,
1452,2330,Delaware Ave & Swift,,,36.955700,-122.049004,,https://scmtd.com/en/stop/2330,,,,0,,
1453,2334,Mark Ave & Arroyo Dr,,,36.964554,-121.762573,,https://scmtd.com/en/stop/2334,,,,0,,
1454,2335,Mark Ave & Hathaway Ave,,,36.966805,-121.763443,,https://scmtd.com/en/stop/2335,,,,0,,
1455,2336,Mark Ave & Ponderosa Ave,,,36.968338,-121.763596,,https://scmtd.com/en/stop/2336,,,,0,,
1456,2340,Capitola Rd & Foster Ct,,,36.977043,-121.986664,,https://scmtd.com/en/stop/2340,,,,0,,
1457,2341,Capitola Rd & 16th Ave,,,36.976334,-121.984383,,https://scmtd.com/en/stop/2341,,,,0,,
1458,2342,Mission & King,,,36.961262,-122.047745,,https://scmtd.com/en/stop/2342,,,,0,,
1459,2344,Western Dr & Beachview Ave,,,36.961472,-122.056572,,https://scmtd.com/en/stop/2344,,,,0,,
1460,2350,Harvey West Blvd (Harvey West Park),,,36.984573,-122.038414,,https://scmtd.com/en/stop/2350,,,,0,,
1461,2352,7th Ave (Casa La Familia),,,36.982899,-121.989479,,https://scmtd.com/en/stop/2352,,,,0,,
1462,2354,Hwy 9 & Pleasant Way,,,37.151428,-122.136292,,https://scmtd.com/en/stop/2354,,,,0,,
1464,2363,Green Valley Rd & Litchfield Ln,,,36.976872,-121.776306,,https://scmtd.com/en/stop/2363,,,,0,,
1466,2365,Soquel Ave & Front,,,36.973484,-122.024208,,https://scmtd.com/en/stop/2365,,,,0,,
1467,2367,Soquel Dr & Chanticleer Ave,,,36.988365,-121.977539,,https://scmtd.com/en/stop/2367,,,,0,,
1468,2371,Mt Hermon Rd (Scotts Valley Square),,,37.047615,-122.032249,,https://scmtd.com/en/stop/2371,,,,0,,
1469,2372,Scotts Valley Dr & El Pueblo Rd,,,37.056007,-122.011597,,https://scmtd.com/en/stop/2372,,,,0,,
1470,2373,Pine Flat Rd & Quail Dr,,,37.050331,-122.153351,,https://scmtd.com/en/stop/2373,,,,0,,
1471,2374,High & Western,,,36.978813,-122.057732,,https://scmtd.com/en/stop/2374,,,,0,,
1472,2375,High & Bay Dr (UCSC - Main Gate),,,36.977322,-122.054306,,https://scmtd.com/en/stop/2375,,,,0,,
1473,2376,Bay Dr & High,,,36.976765,-122.053802,,https://scmtd.com/en/stop/2376,,,,0,,
1474,2377,Capitola Rd & Clares,,,36.973824,-121.969948,,https://scmtd.com/en/stop/2377,,,,0,,
1475,2381,S Green Valley Rd & Magnolia Dr,,,36.924030,-121.780922,,https://scmtd.com/en/stop/2381,,,,0,,
1476,2382,S Green Valley Rd & Kralj Dr,,,36.922298,-121.781578,,https://scmtd.com/en/stop/2382,,,,0,,
1478,2384,Hwy 9 & Quigg Way,,,37.184177,-122.140999,,https://scmtd.com/en/stop/2384,,,,0,,
1479,2393,Western Dr & Western Ct,,,36.968609,-122.058342,,https://scmtd.com/en/stop/2393,,,,0,,
1480,2394,Storey & Escalona Dr,,,36.976193,-122.035034,,https://scmtd.com/en/stop/2394,,,,0,,
1481,2396,River & Josephine,,,36.981163,-122.029144,,https://scmtd.com/en/stop/2396,,,,0,,
1482,2400,Hwy 9 & Teihl,,,37.173401,-122.138138,,https://scmtd.com/en/stop/2400,,,,0,,
1484,2407,Airport Blvd (Freedom Centre),,,36.940006,-121.776810,,https://scmtd.com/en/stop/2407,,,,0,,
1485,2409,Freedom Blvd (#2672),,,36.954845,-121.798737,,https://scmtd.com/en/stop/2409,,,,0,,
1486,2410,Freedom Blvd (#2672),,,36.954887,-121.798973,,https://scmtd.com/en/stop/2410,,,,0,,
1487,2413,S Green Valley Rd & Carey Ave,,,36.934345,-121.774185,,https://scmtd.com/en/stop/2413,,,,0,,
1488,2414,S Green Valley Rd & Hope Dr (Green Valley Village),,,36.927910,-121.778648,,https://scmtd.com/en/stop/2414,,,,0,,
1489,2415,E Lake & Lincoln St,,,36.914864,-121.754097,,https://scmtd.com/en/stop/2415,,,,0,,
1490,2416,Sunnyhills Dr & Shady Oaks Dr,,,36.929684,-121.785355,,https://scmtd.com/en/stop/2416,,,,0,,
1491,2420,Delaware Ave & Fair,,,36.955990,-122.045860,,https://scmtd.com/en/stop/2420,,,,0,,
1492,2426,Dubois & Harvey West Blvd,,,36.985214,-122.039513,,https://scmtd.com/en/stop/2426,,,,0,,
1494,2429,Bonny Doon Rd (Mc Henry Vineyard),,,37.065884,-122.157814,,https://scmtd.com/en/stop/2429,,,,0,,
1495,2433,Green Valley Rd & Holohan Rd,,,36.941628,-121.768974,,https://scmtd.com/en/stop/2433,,,,0,,
1496,2434,Green Valley Rd & Airport Blvd,,,36.941536,-121.769325,,https://scmtd.com/en/stop/2434,,,,0,,
1497,2436,Green Valley Rd (Hispanic SDA Church),,,36.944111,-121.767555,,https://scmtd.com/en/stop/2436,,,,0,,
1498,2437,Empire Grade & Sunlit Ln,,,37.068470,-122.123299,,https://scmtd.com/en/stop/2437,,,,0,,
1499,2440,Hwy 9 & Brookside Dr,,,37.142315,-122.131683,,https://scmtd.com/en/stop/2440,,,,0,,
1500,2445,Big Basin Way (Country Club),,,37.153336,-122.161102,,https://scmtd.com/en/stop/2445,,,,0,,
1501,2448,Heller Dr (UCSC - Rachel Carson College & Porter),,,36.992996,-122.065201,,https://scmtd.com/en/stop/2448,,,,0,,
1502,2453,Green Valley Rd & Devon Ln,,,36.953758,-121.764999,,https://scmtd.com/en/stop/2453,,,,0,,
1504,2464,Seascape Blvd & Via Pacifica,,,36.950470,-121.866020,,https://scmtd.com/en/stop/2464,,,,0,,
1508,2469,Main & W 5th,,,36.912842,-121.759621,,https://scmtd.com/en/stop/2469,,,,0,,
1509,2470,S Green Valley Rd & Kralj Dr,,,36.921890,-121.782135,,https://scmtd.com/en/stop/2470,,,,0,,
1510,2471,Clifford Ave & Crescent Dr,,,36.927750,-121.771591,,https://scmtd.com/en/stop/2471,,,,0,,
1511,2472,Clifford Ave & Montebello Dr,,,36.920925,-121.775604,,https://scmtd.com/en/stop/2472,,,,0,,
1513,2479,Clifford Ave & Rosewood Dr,,,36.921150,-121.775589,,https://scmtd.com/en/stop/2479,,,,0,,
1514,2480,Neilson & Airport Blvd (Wats. Hospital),,,36.928196,-121.793587,,https://scmtd.com/en/stop/2480,,,,0,,
1515,2481,Anna & Holm Rd,,,36.925709,-121.787025,,https://scmtd.com/en/stop/2481,,,,0,,
1517,2483,Lincoln & Palm Ave,,,36.917816,-121.756042,,https://scmtd.com/en/stop/2483,,,,0,,
1518,2484,Lincoln & E High,,,36.920200,-121.758316,,https://scmtd.com/en/stop/2484,,,,0,,
1519,2486,Airport Blvd & Freedom,,,36.937199,-121.778809,,https://scmtd.com/en/stop/2486,,,,0,,
1520,2487,Ross Ave & Chappell Rd,,,36.932194,-121.785233,,https://scmtd.com/en/stop/2487,,,,0,,
1521,2488,Ross Ave & Holly Dr,,,36.931000,-121.784027,,https://scmtd.com/en/stop/2488,,,,0,,
1522,2489,Shady Oaks Dr & Jeanette Way,,,36.927246,-121.785522,,https://scmtd.com/en/stop/2489,,,,0,,
1525,2497,High & Bay,,,36.977081,-122.052864,,https://scmtd.com/en/stop/2497,,,,0,,
1526,2505,Hwy 9 & Brimblecom Rd,,,37.142136,-122.131935,,https://scmtd.com/en/stop/2505,,,,0,,
1527,2507,Empire Grade (at Mile 1306),,,37.021256,-122.084198,,https://scmtd.com/en/stop/2507,,,,0,,
1528,2508,Empire Grade (Bonny Doon Airport),,,37.072632,-122.127945,,https://scmtd.com/en/stop/2508,,,,0,,
1529,2509,Bonny Doon Rd & Cathedral Park Dr,,,37.047409,-122.157059,,https://scmtd.com/en/stop/2509,,,,0,,
1530,2510,Pine Flat Rd (#2300),,,37.070213,-122.142715,,https://scmtd.com/en/stop/2510,,,,0,,
1531,2511,Pine Flat Rd (#2572),,,37.073860,-122.143135,,https://scmtd.com/en/stop/2511,,,,0,,
1532,2512,Pine Flat Rd (#2878),,,37.077599,-122.142075,,https://scmtd.com/en/stop/2512,,,,0,,
1533,2514,Hwy 9 & Middleton Ave (Big Basin),,,37.125935,-122.122597,,https://scmtd.com/en/stop/2514,,,,0,,
1534,2515,Hwy 9 & Middleton Ave (Big Basin),,,37.125984,-122.122391,,https://scmtd.com/en/stop/2515,,,,0,,
1535,2516,Heller Dr (UCSC - Family Student Housing),,,36.991791,-122.066803,,https://scmtd.com/en/stop/2516,,,,0,,
1536,2519,Scotts Valley Dr & Granite Creek Rd,,,37.061939,-122.007164,,https://scmtd.com/en/stop/2519,,,,0,,
1538,2522,Emeline Ave & Button,,,36.986652,-122.018700,,https://scmtd.com/en/stop/2522,,,,0,,
1539,2551,17th Ave & Tremont Dr,,,36.964031,-121.987328,,https://scmtd.com/en/stop/2551,,,,0,,
1540,2552,S Green Valley Rd & Main,,,36.917580,-121.784393,,https://scmtd.com/en/stop/2552,,,,0,,
1541,2554,E Lake & Wagner Ave,,,36.926269,-121.745789,,https://scmtd.com/en/stop/2554,,,,0,,
1542,2559,Graham Hill Rd & Hwy 9 (Covered Bridge),,,37.052712,-122.072281,,https://scmtd.com/en/stop/2559,,,,0,,
1543,2565,County Fairgrounds,,,36.950798,-121.734322,,https://scmtd.com/en/stop/2565,,,,0,,
1545,2572,Laurel & Chestnut,,,36.968651,-122.028992,,https://scmtd.com/en/stop/2572,,,,0,,
1547,2575,Soquel Dr & Terrace Dr,,,36.983730,-121.913445,,https://scmtd.com/en/stop/2575,,,,0,,
1548,2576,Green Valley Rd & Mesa Verde Dr,,,36.968792,-121.765099,,https://scmtd.com/en/stop/2576,,,,0,,
1549,2582,Bay & West Cliff,,,36.961372,-122.025848,,https://scmtd.com/en/stop/2582,,,,0,,
1550,2583,Bay & Laguna,,,36.960594,-122.029099,,https://scmtd.com/en/stop/2583,,,,0,,
1551,2584,Bay & National,,,36.961437,-122.032440,,https://scmtd.com/en/stop/2584,,,,0,,
1552,2585,Bay & National,,,36.961361,-122.032578,,https://scmtd.com/en/stop/2585,,,,0,,
1553,2586,Bay & Laguna,,,36.960400,-122.029274,,https://scmtd.com/en/stop/2586,,,,0,,
1554,2587,Bay & West Cliff,,,36.961231,-122.025948,,https://scmtd.com/en/stop/2587,,,,0,,
1555,2592,Pacific Ave & Viaduct Ln (Wharf),,,36.963673,-122.024895,,https://scmtd.com/en/stop/2592,,,,0,,
1556,2593,Pacific Ave & Front (Wharf),,,36.963615,-122.024612,,https://scmtd.com/en/stop/2593,,,,0,,
1557,2594,Freedom Blvd (K-Mart),,,36.933441,-121.771286,,https://scmtd.com/en/stop/2594,,,,0,,
1558,2596,Freedom Blvd (#2716),,,36.956799,-121.800774,,https://scmtd.com/en/stop/2596,,,,0,,
1559,2599,Capitola Rd & 49th Ave,,,36.973820,-121.955978,,https://scmtd.com/en/stop/2599,,,,0,,
1560,2600,Hwy 9 & Monaco Ln,,,37.133682,-122.126236,,https://scmtd.com/en/stop/2600,,,,0,,
1561,2603,Emeline Ave (Emeline Complex - Building K),,,36.993210,-122.018158,,https://scmtd.com/en/stop/2603,,,,0,,
1563,2617,Portola Dr & 18th Ave,,,36.962772,-121.987114,,https://scmtd.com/en/stop/2617,,,,0,,
1564,2618,Hwy 1 & Bonny Doon Rd,,,37.000938,-122.180626,,https://scmtd.com/en/stop/2618,,,,0,,
1565,2619,Mission & Swift,,,36.960636,-122.048813,,https://scmtd.com/en/stop/2619,,,,0,,
1566,2620,Soquel Dr & Heather Terrace,,,36.982883,-121.912354,,https://scmtd.com/en/stop/2620,,,,0,,
1567,2622,Hanger Way & Neilson,,,36.928905,-121.790894,,https://scmtd.com/en/stop/2622,,,,0,,
1568,2623,Neilson & Airport Blvd (Wats. Hospital),,,36.928360,-121.793121,,https://scmtd.com/en/stop/2623,,,,0,,
1569,SVTC,Cavallaro Transit Center (Scotts Valley),,,37.048939,-122.027916,,https://scmtd.com/en/stop/SVTC,,,,0,,
1571,2628,Clifford Ave & Sherwood Ct,,,36.918819,-121.776115,,https://scmtd.com/en/stop/2628,,,,0,,
1572,2629,Clifford Ave & Montebello Dr,,,36.918735,-121.775993,,https://scmtd.com/en/stop/2629,,,,0,,
1573,2630,Airport Blvd & Holm Rd,,,36.931435,-121.788322,,https://scmtd.com/en/stop/2630,,,,0,,
1574,2632,Scotts Valley Dr & Bean Creek Rd,,,37.044392,-122.023148,,https://scmtd.com/en/stop/2632,,,,0,,
1575,2633,Scotts Valley Dr & Johnston Way,,,37.056863,-122.011497,,https://scmtd.com/en/stop/2633,,,,0,,
1576,2637,Freedom Blvd & Crestview Dr,,,36.927048,-121.765297,,https://scmtd.com/en/stop/2637,,,,0,,
1577,2638,Freedom Blvd & Crestview Dr (Court House),,,36.927010,-121.764923,,https://scmtd.com/en/stop/2638,,,,0,,
1579,2642,Capitola Rd & Leila Court,,,36.976433,-121.985474,,https://scmtd.com/en/stop/2642,,,,0,,
1580,2643,Freedom Blvd (#2718),,,36.956940,-121.801193,,https://scmtd.com/en/stop/2643,,,,0,,
1584,2654,Harvey West Blvd & Sylvania Ave (Costco),,,36.983833,-122.034760,,https://scmtd.com/en/stop/2654,,,,0,,
1585,2655,Freedom Blvd & Airport Blvd (Library),,,36.938019,-121.777550,,https://scmtd.com/en/stop/2655,,,,0,,
1586,2656,Mission & Union,,,36.975868,-122.032707,,https://scmtd.com/en/stop/2656,,,,0,,
1587,2659,Western Dr & Meder,,,36.974789,-122.058456,,https://scmtd.com/en/stop/2659,,,,0,,
1588,2660,Western Dr & Monarch Way,,,36.970360,-122.058510,,https://scmtd.com/en/stop/2660,,,,0,,
1589,2661,Western Dr & Western Ct,,,36.968826,-122.058517,,https://scmtd.com/en/stop/2661,,,,0,,
1590,2662,Western Dr & Cypress Park,,,36.966549,-122.057159,,https://scmtd.com/en/stop/2662,,,,0,,
1591,2663,Western Dr & Flower,,,36.964523,-122.056740,,https://scmtd.com/en/stop/2663,,,,0,,
1592,2664,Encinal & Dubois,,,36.987320,-122.036980,,https://scmtd.com/en/stop/2664,,,,0,,
1594,2667,Front & Soquel Ave,,,36.974030,-122.024796,,https://scmtd.com/en/stop/2667,,,,0,,
1595,2668,Soquel Ave & Caledonia,,,36.977631,-122.014473,,https://scmtd.com/en/stop/2668,,,,0,,
1596,2669,Hagar Dr & Village Rd (UCSC - The Farm),,,36.985916,-122.053543,,https://scmtd.com/en/stop/2669,,,,0,,
1597,2670,Heller Dr (UCSC - Oakes College),,,36.990601,-122.066093,,https://scmtd.com/en/stop/2670,,,,0,,
1598,2671,Heller Dr (UCSC - Rachel Carson College & Porter),,,36.992802,-122.064850,,https://scmtd.com/en/stop/2671,,,,0,,
1599,2672,Heller Dr (UCSC - Kerr Hall),,,36.996708,-122.063583,,https://scmtd.com/en/stop/2672,,,,0,,
1600,2673,Heller Dr & McLaughlin Dr (UCSC - Kresge College),,,36.999206,-122.064339,,https://scmtd.com/en/stop/2673,,,,0,,
1601,2674,McLaughlin Dr (UCSC - Science Hill),,,36.999855,-122.062172,,https://scmtd.com/en/stop/2674,,,,0,,
1602,2675,McLaughlin Dr (UCSC - College 9 & John R. Lewis),,,36.999756,-122.058311,,https://scmtd.com/en/stop/2675,,,,0,,
1603,2676,"Hagar Dr (UCSC - Bookstore, Cowell & Stevenson)",,,36.996662,-122.055412,,https://scmtd.com/en/stop/2676,,,,0,,
1604,2677,Hagar Dr (UCSC - East Remote Parking),,,36.991276,-122.054886,,https://scmtd.com/en/stop/2677,,,,0,,
1605,2678,Hagar Dr & Village Rd (UCSC - The Farm),,,36.985538,-122.053551,,https://scmtd.com/en/stop/2678,,,,0,,
1606,2679,Coolidge Dr & Hagar Ct  (UCSC - Lower Campus),,,36.981560,-122.052109,,https://scmtd.com/en/stop/2679,,,,0,,
1607,2681,Via Pacifica & Cabo Court,,,36.949459,-121.866203,,https://scmtd.com/en/stop/2681,,,,0,,
1609,2683,Encinal & Sylvania,,,36.986927,-122.034683,,https://scmtd.com/en/stop/2683,,,,0,,
1610,2691,Main & Ford,,,36.913899,-121.760254,,https://scmtd.com/en/stop/2691,,,,0,,
1611,2692,Hwy 9 (SLV High School),,,37.061172,-122.079826,,https://scmtd.com/en/stop/2692,,,,0,,
1612,2694,Delaware Ave & Centennial,,,36.958050,-122.030998,,https://scmtd.com/en/stop/2694,,,,0,,
1613,2695,Delaware Ave & Liberty,,,36.958031,-122.030022,,https://scmtd.com/en/stop/2695,,,,0,,
1614,2696,Delaware Ave & Columbia,,,36.957451,-122.033981,,https://scmtd.com/en/stop/2696,,,,0,,
1615,2697,Pacific & Center,,,36.965668,-122.025360,,https://scmtd.com/en/stop/2697,,,,0,,
1616,2699,Capitola Ave & Bay Ave,,,36.978306,-121.953102,,https://scmtd.com/en/stop/2699,,,,0,,
1622,2705,W Beach (#600),,,36.905781,-121.766960,,https://scmtd.com/en/stop/2705,,,,0,,
1623,2706,Ohlone Pkwy & Lighthouse Dr,,,36.907745,-121.774651,,https://scmtd.com/en/stop/2706,,,,0,,
1624,2707,Ohlone Pkwy & Loma Vista,,,36.910149,-121.774933,,https://scmtd.com/en/stop/2707,,,,0,,
1625,2708,Ohlone Pkwy & Kingfisher Dr,,,36.912548,-121.777344,,https://scmtd.com/en/stop/2708,,,,0,,
1626,2709,Ohlone Pkwy & Egret Ln,,,36.914127,-121.778275,,https://scmtd.com/en/stop/2709,,,,0,,
1627,2710,Ohlone Pkwy & Harkins Slough Rd,,,36.914452,-121.778473,,https://scmtd.com/en/stop/2710,,,,0,,
1628,2711,Ohlone Pkwy & Kingfisher Dr,,,36.912193,-121.776939,,https://scmtd.com/en/stop/2711,,,,0,,
1629,2712,Ohlone Pkwy & Loma Vista,,,36.909638,-121.775085,,https://scmtd.com/en/stop/2712,,,,0,,
1630,2713,Ohlone Pkwy & Bree Ln,,,36.906418,-121.774376,,https://scmtd.com/en/stop/2713,,,,0,,
1632,2715,Natural Bridges Dr & Mission,,,36.958874,-122.057594,,https://scmtd.com/en/stop/2715,,,,0,,
1633,2716,Natural Bridges Dr & Mission,,,36.959156,-122.057434,,https://scmtd.com/en/stop/2716,,,,0,,
1634,2717,Natural Bridges Dr & Delaware Ave,,,36.954990,-122.057137,,https://scmtd.com/en/stop/2717,,,,0,,
1635,2718,Natural Bridges Dr & Delaware Ave,,,36.955070,-122.056969,,https://scmtd.com/en/stop/2718,,,,0,,
1636,2719,W Beach & Industrial Rd,,,36.904480,-121.768311,,https://scmtd.com/en/stop/2719,,,,0,,
1637,2721,S Green Valley Rd & Main,,,36.917862,-121.783974,,https://scmtd.com/en/stop/2721,,,,0,,
1638,2722,Soquel Dr & Lower Perimeter Rd (Sesnon House),,,36.989567,-121.928917,,https://scmtd.com/en/stop/2722,,,,0,,
1639,2723,Delaware Ave & National,,,36.957859,-122.032242,,https://scmtd.com/en/stop/2723,,,,0,,
1640,2724,S Green Valley Rd & Loma Prieta Ave,,,36.931389,-121.776657,,https://scmtd.com/en/stop/2724,,,,0,,
1641,2725,E Lake & Bridge,,,36.930779,-121.744064,,https://scmtd.com/en/stop/2725,,,,0,,
1642,2726,Green Valley Rd & Stewart Ave,,,36.937431,-121.771591,,https://scmtd.com/en/stop/2726,,,,0,,
1643,2727,Harkins Slough Rd (Pajaro Valley High School),,,36.914471,-121.790749,,https://scmtd.com/en/stop/2727,,,,0,,
1644,2728,Water & Poplar,,,36.981316,-122.009460,,https://scmtd.com/en/stop/2728,,,,0,,
1645,2731,Laurel & Blackburn,,,36.968571,-122.031334,,https://scmtd.com/en/stop/2731,,,,0,,
1646,2732,7th Ave & Tanner Ct,,,36.977974,-121.992477,,https://scmtd.com/en/stop/2732,,,,0,,
1647,2733,Soquel Dr & Research Park Dr,,,36.987053,-121.967438,,https://scmtd.com/en/stop/2733,,,,0,,
1648,2734,Main & Pennsylvania Dr,,,36.916489,-121.770653,,https://scmtd.com/en/stop/2734,,,,0,,
1649,2737,Lincoln & Prospect,,,36.922581,-121.760994,,https://scmtd.com/en/stop/2737,,,,0,,
1650,2738,Westgate Dr & Technology Dr (Social Security),,,36.923019,-121.793701,,https://scmtd.com/en/stop/2738,,,,0,,
1651,2739,High & Tosca Terrace,,,36.979813,-122.059212,,https://scmtd.com/en/stop/2739,,,,0,,
1652,2740,Delaware & Swanton,,,36.954983,-122.054375,,https://scmtd.com/en/stop/2740,,,,0,,
1653,2743,Vernon & River (METRO Admin Offices),,,36.990452,-122.032234,,https://scmtd.com/en/stop/2743,,,,0,,
1654,2744,McAllister Way (Seymour Center),,,36.949341,-122.065033,,https://scmtd.com/en/stop/2744,,,,0,,
1656,2749,McAllister Way (Coastal Biology Building),,,36.952473,-122.065521,,https://scmtd.com/en/stop/2749,,,,0,,
1657,2750,McAllister Way (Coastal Biology Building),,,36.952549,-122.065399,,https://scmtd.com/en/stop/2750,,,,0,,
1659,CAPM1,Capitola Mall - Lane 1,,,36.975433,-121.966209,,https://scmtd.com/en/stop/CAPM1,,,,0,,
1660,CAPM2,Capitola Mall - Lane 2,,,36.975686,-121.966098,,https://scmtd.com/en/stop/CAPM2,,,,0,,
1661,WTC,Watsonville Transit Center,,,36.909691,-121.759972,,https://scmtd.com/en/stop/WTC,,,,0,,
1662,WTC1,Watsonville Transit Center - Lane 1,,,36.909863,-121.760071,,https://scmtd.com/en/stop/WTC1,,,,0,,
1663,WTC2,Watsonville Transit Center - Lane 2,,,36.909775,-121.760223,,https://scmtd.com/en/stop/WTC2,,,,0,,
1691,2417,E Beach & Hushbeck Ave,,,36.918564,-121.745575,,https://scmtd.com/en/stop/2417,,,,0,,
1692,2418,E Beach & Beck,,,36.916870,-121.747940,,https://scmtd.com/en/stop/2418,,,,0,,
1693,2419,E Beach & Blackburn,,,36.915428,-121.749878,,https://scmtd.com/en/stop/2419,,,,0,,
1694,2752,Emeline Ave & Sutphen,,,36.991341,-122.017593,,https://scmtd.com/en/stop/2752,,,,0,,
1704,1985,Big Basin Way (Big Basin State Park),,,37.172207,-122.222061,,https://scmtd.com/en/stop/1985,,,,0,,
1706,1673,Playa Blvd & Estrella Ave,,,36.937351,-121.862396,,https://scmtd.com/en/stop/1673,,,,0,,
1707,1674,Playa Blvd & Palma Ave,,,36.938965,-121.859962,,https://scmtd.com/en/stop/1674,,,,0,,
1708,1675,Playa Blvd & San Andreas Rd,,,36.940403,-121.858971,,https://scmtd.com/en/stop/1675,,,,0,,
1709,1676,Playa Blvd & Arbolada Dr,,,36.940422,-121.859268,,https://scmtd.com/en/stop/1676,,,,0,,
1710,1725,San Andreas Rd & Camino Al Barranco,,,36.945953,-121.862381,,https://scmtd.com/en/stop/1725,,,,0,,
1711,1759,Seabright & Broadway,,,36.975513,-122.008514,,https://scmtd.com/en/stop/1759,,,,0,,
1712,2005,San Andreas Rd & Seascape Blvd,,,36.950661,-121.864044,,https://scmtd.com/en/stop/2005,,,,0,,
1713,2006,San Andreas Rd & Seascape Blvd,,,36.951324,-121.863968,,https://scmtd.com/en/stop/2006,,,,0,,
1716,1766,Seabright & Soquel Av,,,36.979572,-122.010361,,https://scmtd.com/en/stop/1766,,,,0,,
1720,2759,Bronte Ave & Ester Way (Bronte Park),,,36.918472,-121.742859,,https://scmtd.com/en/stop/2759,,,,0,,
1721,2760,Bridge & Spruce Cir,,,36.919979,-121.740288,,https://scmtd.com/en/stop/2760,,,,0,,
1722,2761,Tuttle Ave & E Lake Ave,,,36.922291,-121.745979,,https://scmtd.com/en/stop/2761,,,,0,,
1723,2113,Front & Spruce (Kaiser Arena),,,36.967999,-122.023605,,https://scmtd.com/en/stop/2113,,,,0,,
1724,2605,Ocean & Water (Governmental Center),,,36.978935,-122.021240,,https://scmtd.com/en/stop/2605,,,,0,,
1725,2682,Ocean & Dakota,,,36.977005,-122.020386,,https://scmtd.com/en/stop/2682,,,,0,,
1726,2754,River St S. & Soquel Ave,,,36.973724,-122.023796,,https://scmtd.com/en/stop/2754,,,,0,,
1730,1180,Ross & Ginos Court,,,36.931694,-121.784637,,https://scmtd.com/en/stop/1180,,,,0,,
1731,2621,Anna & Hanger Way,,,36.926018,-121.790680,,https://scmtd.com/en/stop/2621,,,,0,,
1732,2755,Westridge Dr (Government Center),,,36.910893,-121.783302,,https://scmtd.com/en/stop/2755,,,,0,,
1733,2764,Front (Trader Joe's),,,36.974449,-122.025047,,https://scmtd.com/en/stop/2764,,,,0,,
1734,2765,7th Ave & Soquel,,,36.984989,-121.989853,,https://scmtd.com/en/stop/2765,,,,0,,
1735,2766,Bay Ave & Hill,,,36.981594,-121.955849,,https://scmtd.com/en/stop/2766,,,,0,,
1736,2767,Porter (Soquel Elementary),,,36.986519,-121.957275,,https://scmtd.com/en/stop/2767,,,,0,,
1737,2768,Ocean & Kennan,,,36.982479,-122.022598,,https://scmtd.com/en/stop/2768,,,,0,,
1739,1999,Park Ave & Lindsay Ln,,,36.986443,-121.936394,,https://scmtd.com/en/stop/1999,,,,0,,
1740,2009,Park Ave & Cabrillo College Dr,,,36.986324,-121.936646,,https://scmtd.com/en/stop/2009,,,,0,,
1741,2289,Porter & W Walnut,,,36.986076,-121.957481,,https://scmtd.com/en/stop/2289,,,,0,,
1742,2769,Lincoln & E Lake,,,36.915264,-121.753899,,https://scmtd.com/en/stop/2769,,,,0,,
1743,2770,Hushbeck Ave & E Beach,,,36.918518,-121.745163,,https://scmtd.com/en/stop/2770,,,,0,,
1744,2771,Front & Laurel,,,36.969826,-122.023979,,https://scmtd.com/en/stop/2771,,,,0,,
1745,2772,Front & Laurel,,,36.969833,-122.023819,,https://scmtd.com/en/stop/2772,,,,0,,
